{"generated":"2026-07-23T20:38:00Z","gauges":[{"lid":"AAIT2","name":"Williamson Creek at Manchaca Road at Austin","latitude":30.221111111111,"longitude":-97.793333333333,"status":{"observed":{"primary":1.9,"primaryUnit":"ft","secondary":0.001,"secondaryUnit":"kcfs","floodCategory":"no_flooding","validTime":"2026-07-23T19:30:00Z"},"forecast":{"primary":-999,"primaryUnit":"","secondary":-999,"secondaryUnit":"","floodCategory":"fcst_not_current","validTime":"0001-01-01T00:00:00Z"}}},{"lid":"ABTT2","name":"Barton Creek at Loop 360","latitude":30.244444444444,"longitude":-97.801944444444,"status":{"observed":{"primary":1.66,"primaryUnit":"ft","secondary":-999,"secondaryUnit":"kcfs","floodCategory":"no_flooding","validTime":"2026-07-23T20:00:00Z"},"forecast":{"primary":-999,"primaryUnit":"","secondary":-999,"secondaryUnit":"","floodCategory":"fcst_not_current","validTime":"0001-01-01T00:00:00Z"}}},{"lid":"ABUT2","name":"Bull Creek above Loop 360","latitude":30.371944444444,"longitude":-97.784444444444,"status":{"observed":{"primary":1.54,"primaryUnit":"ft","secondary":0.0042,"secondaryUnit":"kcfs","floodCategory":"no_flooding","validTime":"2026-07-23T20:00:00Z"},"forecast":{"primary":-999,"primaryUnit":"","secondary":-999,"secondaryUnit":"","floodCategory":"fcst_not_current","validTime":"0001-01-01T00:00:00Z"}}},{"lid":"ACRT2","name":"Colorado River (TX) at Austin","latitude":30.246111111111,"longitude":-97.68,"status":{"observed":{"primary":19.23,"primaryUnit":"ft","secondary":2.87,"secondaryUnit":"kcfs","floodCategory":"no_flooding","validTime":"2026-07-23T20:00:00Z"},"forecast":{"primary":19.9,"primaryUnit":"ft","secondary":3.35,"secondaryUnit":"kcfs","floodCategory":"no_flooding","validTime":"2026-07-23T21:00:00Z"}}},{"lid":"ADDT2","name":"Langham Creek at Addicks Reservoir","latitude":29.791111111111,"longitude":-95.623333333333,"status":{"observed":{"primary":68.45,"primaryUnit":"ft","secondary":-999,"secondaryUnit":"kcfs","floodCategory":"no_flooding","validTime":"2026-07-23T20:00:00Z"},"forecast":{"primary":-999,"primaryUnit":"","secondary":-999,"secondaryUnit":"","floodCategory":"fcst_not_current","validTime":"0001-01-01T00:00:00Z"}}},{"lid":"ADMT2","name":"Adams Bayou at SH 87","latitude":30.0934,"longitude":-93.7497,"status":{"observed":{"primary":1.48,"primaryUnit":"ft","secondary":-999,"secondaryUnit":"kcfs","floodCategory":"no_flooding","validTime":"2026-07-23T19:45:00Z"},"forecast":{"primary":-999,"primaryUnit":"","secondary":-999,"secondaryUnit":"","floodCategory":"fcst_not_current","validTime":"0001-01-01T00:00:00Z"}}},{"lid":"AHOT2","name":"Shoal Creek at West 12th Street","latitude":30.276388888889,"longitude":-97.75,"status":{"observed":{"primary":1.71,"primaryUnit":"ft","secondary":0.002,"secondaryUnit":"kcfs","floodCategory":"no_flooding","validTime":"2026-07-23T19:20:00Z"},"forecast":{"primary":-999,"primaryUnit":"","secondary":-999,"secondaryUnit":"","floodCategory":"fcst_not_current","validTime":"0001-01-01T00:00:00Z"}}},{"lid":"ALKT2","name":"Colorado River (TX) at Lake Austin","latitude":30.3149283,"longitude":-97.7863958,"status":{"observed":{"primary":492.39,"primaryUnit":"ft","secondary":-999,"secondaryUnit":"kcfs","floodCategory":"not_defined","validTime":"2026-07-23T20:00:00Z"},"forecast":{"primary":-999,"primaryUnit":"","secondary":-999,"secondaryUnit":"","floodCategory":"fcst_not_current","validTime":"0001-01-01T00:00:00Z"}}},{"lid":"ANPT2","name":"Tide Gauge above Aransas Pass","latitude":27.837,"longitude":-97.039,"status":{"observed":{"primary":0.16,"primaryUnit":"ft","secondary":-999,"secondaryUnit":"kcfs","floodCategory":"not_defined","validTime":"2026-07-23T19:54:00Z"},"forecast":{"primary":1.23,"primaryUnit":"ft","secondary":-999,"secondaryUnit":"kcfs","floodCategory":"not_defined","validTime":"2026-07-24T10:00:00Z"}}},{"lid":"ASHT2","name":"Shoal Creek above Silverway Drive","latitude":30.354166666667,"longitude":-97.738888888889,"status":{"observed":{"primary":1.04,"primaryUnit":"ft","secondary":-999,"secondaryUnit":"kcfs","floodCategory":"not_defined","validTime":"2026-07-23T19:15:00Z"},"forecast":{"primary":-999,"primaryUnit":"","secondary":-999,"secondaryUnit":"","floodCategory":"fcst_not_current","validTime":"0001-01-01T00:00:00Z"}}},{"lid":"ATIT2","name":"Onion Creek at US 183","latitude":30.177777777778,"longitude":-97.688333333333,"status":{"observed":{"primary":4.96,"primaryUnit":"ft","secondary":0.0046,"secondaryUnit":"kcfs","floodCategory":"no_flooding","validTime":"2026-07-23T19:20:00Z"},"forecast":{"primary":-999,"primaryUnit":"","secondary":-999,"secondaryUnit":"","floodCategory":"fcst_not_current","validTime":"0001-01-01T00:00:00Z"}}},{"lid":"AUST2","name":"Austin Bayou at SH 35 near Liverpool","latitude":29.28088333,"longitude":-95.33179167,"status":{"observed":{"primary":9.16,"primaryUnit":"ft","secondary":-999,"secondaryUnit":"kcfs","floodCategory":"no_flooding","validTime":"2026-07-23T19:55:00Z"},"forecast":{"primary":-999,"primaryUnit":"","secondary":-999,"secondaryUnit":"","floodCategory":"fcst_not_current","validTime":"0001-01-01T00:00:00Z"}}},{"lid":"BACT2","name":"Colorado River (TX) near Bay City","latitude":28.973888888889,"longitude":-96.012222222222,"status":{"observed":{"primary":11.9,"primaryUnit":"ft","secondary":6.91,"secondaryUnit":"kcfs","floodCategory":"no_flooding","validTime":"2026-07-23T19:15:00Z"},"forecast":{"primary":16.4,"primaryUnit":"ft","secondary":11.8,"secondaryUnit":"kcfs","floodCategory":"no_flooding","validTime":"2026-07-25T00:00:00Z"}}},{"lid":"BAKT2","name":"Buffalo Bayou at Barker Reservoir","latitude":29.769722222222,"longitude":-95.646944444444,"status":{"observed":{"primary":69.99,"primaryUnit":"ft","secondary":-999,"secondaryUnit":"kcfs","floodCategory":"no_flooding","validTime":"2026-07-23T20:00:00Z"},"forecast":{"primary":-999,"primaryUnit":"","secondary":-999,"secondaryUnit":"","floodCategory":"fcst_not_current","validTime":"0001-01-01T00:00:00Z"}}},{"lid":"BAWT2","name":"Brazos River above San Felipe","latitude":29.808333333333334,"longitude":-96.09555555555555,"status":{"observed":{"primary":94.75,"primaryUnit":"ft","secondary":3.35,"secondaryUnit":"kcfs","floodCategory":"no_flooding","validTime":"2026-07-23T19:30:00Z"},"forecast":{"primary":-999,"primaryUnit":"","secondary":-999,"secondaryUnit":"","floodCategory":"fcst_not_current","validTime":"0001-01-01T00:00:00Z"}}},{"lid":"BBAT2","name":"Bear Creek at Barker","latitude":29.83055555555556,"longitude":-95.68666666666668,"status":{"observed":{"primary":96.66,"primaryUnit":"ft","secondary":0.0013,"secondaryUnit":"kcfs","floodCategory":"no_flooding","validTime":"2026-07-23T19:30:00Z"},"forecast":{"primary":-999,"primaryUnit":"","secondary":-999,"secondaryUnit":"","floodCategory":"fcst_not_current","validTime":"0001-01-01T00:00:00Z"}}},{"lid":"BBST2","name":"Buffalo Bayou at Shepherd Drive","latitude":29.76,"longitude":-95.408333333333,"status":{"observed":{"primary":1.93,"primaryUnit":"ft","secondary":-999,"secondaryUnit":"kcfs","floodCategory":"no_flooding","validTime":"2026-07-23T19:15:00Z"},"forecast":{"primary":-999,"primaryUnit":"","secondary":-999,"secondaryUnit":"","floodCategory":"fcst_not_current","validTime":"0001-01-01T00:00:00Z"}}},{"lid":"BBZT2","name":"Brazos River near Bryan","latitude":30.626666666667,"longitude":-96.543888888889,"status":{"observed":{"primary":9.65,"primaryUnit":"ft","secondary":1.49,"secondaryUnit":"kcfs","floodCategory":"no_flooding","validTime":"2026-07-23T19:15:00Z"},"forecast":{"primary":9.8,"primaryUnit":"ft","secondary":1.59,"secondaryUnit":"kcfs","floodCategory":"no_flooding","validTime":"2026-07-26T03:00:00Z"}}},{"lid":"BCCT2","name":"Barton Creek above Barton Springs","latitude":30.263333333333,"longitude":-97.771944444444,"status":{"observed":{"primary":1.42,"primaryUnit":"ft","secondary":0.0015,"secondaryUnit":"kcfs","floodCategory":"not_defined","validTime":"2026-07-23T19:20:00Z"},"forecast":{"primary":-999,"primaryUnit":"","secondary":-999,"secondaryUnit":"","floodCategory":"fcst_not_current","validTime":"0001-01-01T00:00:00Z"}}},{"lid":"BCDT2","name":"Bear Creek below Route 1826 at Driftwood","latitude":30.155277777778,"longitude":-97.939722222222,"status":{"observed":{"primary":3.37,"primaryUnit":"ft","secondary":0.0028,"secondaryUnit":"kcfs","floodCategory":"not_defined","validTime":"2026-07-23T20:00:00Z"},"forecast":{"primary":-999,"primaryUnit":"","secondary":-999,"secondaryUnit":"","floodCategory":"fcst_not_current","validTime":"0001-01-01T00:00:00Z"}}},{"lid":"BCIT2","name":"Brushy Creek at I-35 Round Rock","latitude":30.512777777777778,"longitude":-97.68638888888889,"status":{"observed":{"primary":4.01,"primaryUnit":"ft","secondary":0.0589,"secondaryUnit":"kcfs","floodCategory":"not_defined","validTime":"2026-07-23T19:50:00Z"},"forecast":{"primary":-999,"primaryUnit":"","secondary":-999,"secondaryUnit":"","floodCategory":"fcst_not_current","validTime":"0001-01-01T00:00:00Z"}}},{"lid":"BCMT2","name":"Bear Creek at Spillar Ranch Road","latitude":30.163611111111113,"longitude":-97.90694444444445,"status":{"observed":{"primary":1.06,"primaryUnit":"ft","secondary":0.0026,"secondaryUnit":"kcfs","floodCategory":"not_defined","validTime":"2026-07-23T19:10:00Z"},"forecast":{"primary":-999,"primaryUnit":"","secondary":-999,"secondaryUnit":"","floodCategory":"fcst_not_current","validTime":"0001-01-01T00:00:00Z"}}},{"lid":"BCNT2","name":"Big Creek near Needville","latitude":29.47190769,"longitude":-95.8030067,"status":{"observed":{"primary":1.83,"primaryUnit":"ft","secondary":0.0016,"secondaryUnit":"kcfs","floodCategory":"no_flooding","validTime":"2026-07-23T19:15:00Z"},"forecast":{"primary":-999,"primaryUnit":"","secondary":-999,"secondaryUnit":"","floodCategory":"fcst_not_current","validTime":"0001-01-01T00:00:00Z"}}},{"lid":"BCWT2","name":"Boggy Creek at Webberville Road","latitude":30.263055555556,"longitude":-97.7125,"status":{"observed":{"primary":0.69,"primaryUnit":"ft","secondary":0.0025,"secondaryUnit":"kcfs","floodCategory":"not_defined","validTime":"2026-07-23T19:50:00Z"},"forecast":{"primary":-999,"primaryUnit":"","secondary":-999,"secondaryUnit":"","floodCategory":"fcst_not_current","validTime":"0001-01-01T00:00:00Z"}}},{"lid":"BCYT2","name":"Cypress Creek (E TX) at CR 725","latitude":30.4753,"longitude":-93.9392,"status":{"observed":{"primary":-999,"primaryUnit":"","secondary":-999,"secondaryUnit":"","floodCategory":"obs_not_current","validTime":"0001-01-01T00:00:00Z"},"forecast":{"primary":-999,"primaryUnit":"","secondary":-999,"secondaryUnit":"","floodCategory":"fcst_not_current","validTime":"0001-01-01T00:00:00Z"}}},{"lid":"BDUT2","name":"Onion Creek at Buda","latitude":30.086666666667,"longitude":-97.848611111111,"status":{"observed":{"primary":3.43,"primaryUnit":"ft","secondary":-999,"secondaryUnit":"kcfs","floodCategory":"no_flooding","validTime":"2026-07-23T20:00:00Z"},"forecast":{"primary":-999,"primaryUnit":"","secondary":-999,"secondaryUnit":"","floodCategory":"fcst_not_current","validTime":"0001-01-01T00:00:00Z"}}},{"lid":"BEAT2","name":"Neches River at Beaumont","latitude":30.133055555556,"longitude":-94.096388888889,"status":{"observed":{"primary":-999,"primaryUnit":"","secondary":-999,"secondaryUnit":"","floodCategory":"out_of_service","validTime":"0001-01-01T00:00:00Z"},"forecast":{"primary":-999,"primaryUnit":"","secondary":-999,"secondaryUnit":"","floodCategory":"out_of_service","validTime":"0001-01-01T00:00:00Z"}}},{"lid":"BEHT2","name":"Big Creek at TX 150 near Shepherd","latitude":30.50217778,"longitude":-95.03128889,"status":{"observed":{"primary":132.91,"primaryUnit":"ft","secondary":-999,"secondaryUnit":"kcfs","floodCategory":"no_flooding","validTime":"2026-07-23T19:50:00Z"},"forecast":{"primary":-999,"primaryUnit":"","secondary":-999,"secondaryUnit":"","floodCategory":"fcst_not_current","validTime":"0001-01-01T00:00:00Z"}}},{"lid":"BEMT2","name":"Mill Creek near Bellville","latitude":29.880833333333,"longitude":-96.205,"status":{"observed":{"primary":2.81,"primaryUnit":"ft","secondary":0.0398,"secondaryUnit":"kcfs","floodCategory":"no_flooding","validTime":"2026-07-23T19:30:00Z"},"forecast":{"primary":-999,"primaryUnit":"","secondary":-999,"secondaryUnit":"","floodCategory":"fcst_not_current","validTime":"0001-01-01T00:00:00Z"}}},{"lid":"BGMT2","name":"Boggy Creek at Manor Road","latitude":30.286111111111,"longitude":-97.708611111111,"status":{"observed":{"primary":1.03,"primaryUnit":"ft","secondary":0.0022,"secondaryUnit":"kcfs","floodCategory":"not_defined","validTime":"2026-07-23T20:00:00Z"},"forecast":{"primary":-999,"primaryUnit":"","secondary":-999,"secondaryUnit":"","floodCategory":"fcst_not_current","validTime":"0001-01-01T00:00:00Z"}}},{"lid":"BIPT2","name":"Pine Island Bayou at B.I. Pump Plant","latitude":30.179166666667,"longitude":-94.188888888889,"status":{"observed":{"primary":3.9,"primaryUnit":"ft","secondary":0.156,"secondaryUnit":"kcfs","floodCategory":"no_flooding","validTime":"2026-07-23T19:15:00Z"},"forecast":{"primary":-999,"primaryUnit":"","secondary":-999,"secondaryUnit":"","floodCategory":"fcst_not_current","validTime":"0001-01-01T00:00:00Z"}}},{"lid":"BKFT2","name":"Brushy Creek at Kenney Fort Blvd nr Round Rock","latitude":30.512222,"longitude":-97.636667,"status":{"observed":{"primary":3.81,"primaryUnit":"ft","secondary":0.0645,"secondaryUnit":"kcfs","floodCategory":"not_defined","validTime":"2026-07-23T19:35:00Z"},"forecast":{"primary":-999,"primaryUnit":"","secondary":-999,"secondaryUnit":"","floodCategory":"fcst_not_current","validTime":"0001-01-01T00:00:00Z"}}},{"lid":"BKTT2","name":"Brushy Creek at FM 619 near Taylor","latitude":30.519444444444446,"longitude":-97.33833333333334,"status":{"observed":{"primary":8.03,"primaryUnit":"ft","secondary":0.047,"secondaryUnit":"kcfs","floodCategory":"not_defined","validTime":"2026-07-23T19:15:00Z"},"forecast":{"primary":-999,"primaryUnit":"","secondary":-999,"secondaryUnit":"","floodCategory":"fcst_not_current","validTime":"0001-01-01T00:00:00Z"}}},{"lid":"BOLT2","name":"San Bernard River near Boling","latitude":29.313333333333,"longitude":-95.893888888889,"status":{"observed":{"primary":4.85,"primaryUnit":"ft","secondary":0.176,"secondaryUnit":"kcfs","floodCategory":"no_flooding","validTime":"2026-07-23T19:15:00Z"},"forecast":{"primary":-999,"primaryUnit":"","secondary":-999,"secondaryUnit":"","floodCategory":"fcst_not_current","validTime":"0001-01-01T00:00:00Z"}}},{"lid":"BOPT2","name":"Boggy Creek (E TX) at Park Road","latitude":30.224757508,"longitude":-94.206492019,"status":{"observed":{"primary":0.25,"primaryUnit":"ft","secondary":-999,"secondaryUnit":"kcfs","floodCategory":"no_flooding","validTime":"2026-07-23T20:05:00Z"},"forecast":{"primary":-999,"primaryUnit":"","secondary":-999,"secondaryUnit":"","floodCategory":"fcst_not_current","validTime":"0001-01-01T00:00:00Z"}}},{"lid":"BRLT2","name":"Lavaca River at Breslau","latitude":29.520277777778,"longitude":-97.001666666667,"status":{"observed":{"primary":-999,"primaryUnit":"","secondary":-999,"secondaryUnit":"","floodCategory":"obs_not_current","validTime":"0001-01-01T00:00:00Z"},"forecast":{"primary":-999,"primaryUnit":"","secondary":-999,"secondaryUnit":"","floodCategory":"fcst_not_current","validTime":"0001-01-01T00:00:00Z"}}},{"lid":"BRTT2","name":"Colorado River (TX) at Bastrop","latitude":30.104444444444,"longitude":-97.319166666667,"status":{"observed":{"primary":10.42,"primaryUnit":"ft","secondary":7.66,"secondaryUnit":"kcfs","floodCategory":"no_flooding","validTime":"2026-07-23T20:00:00Z"},"forecast":{"primary":10.4,"primaryUnit":"ft","secondary":7.64,"secondaryUnit":"kcfs","floodCategory":"no_flooding","validTime":"2026-07-23T21:00:00Z"}}},{"lid":"BSMT2","name":"Blanco River at San Marcos","latitude":29.879444444444,"longitude":-97.910555555556,"status":{"observed":{"primary":8.22,"primaryUnit":"ft","secondary":0.0015,"secondaryUnit":"kcfs","floodCategory":"no_flooding","validTime":"2026-07-23T19:45:00Z"},"forecast":{"primary":-999,"primaryUnit":"","secondary":-999,"secondaryUnit":"","floodCategory":"fcst_not_current","validTime":"0001-01-01T00:00:00Z"}}},{"lid":"BSYT2","name":"Brushy Creek at FM 973 nr Coupland","latitude":30.469167,"longitude":-97.463333,"status":{"observed":{"primary":5.83,"primaryUnit":"ft","secondary":0.051,"secondaryUnit":"kcfs","floodCategory":"not_defined","validTime":"2026-07-23T19:40:00Z"},"forecast":{"primary":-999,"primaryUnit":"","secondary":-999,"secondaryUnit":"","floodCategory":"fcst_not_current","validTime":"0001-01-01T00:00:00Z"}}},{"lid":"BUKT2","name":"Sabine River at CR 2082","latitude":30.9694,"longitude":-93.5719,"status":{"observed":{"primary":71.11,"primaryUnit":"ft","secondary":-999,"secondaryUnit":"kcfs","floodCategory":"no_flooding","validTime":"2026-07-23T19:15:00Z"},"forecast":{"primary":-999,"primaryUnit":"","secondary":-999,"secondaryUnit":"","floodCategory":"fcst_not_current","validTime":"0001-01-01T00:00:00Z"}}},{"lid":"BUXL1","name":"Buxton Creek at HWY 27 near DeQuincy","latitude":30.4231111,"longitude":-93.4246111,"status":{"observed":{"primary":1.4,"primaryUnit":"ft","secondary":-999,"secondaryUnit":"kcfs","floodCategory":"no_flooding","validTime":"2026-07-23T19:00:00Z"},"forecast":{"primary":-999,"primaryUnit":"","secondary":-999,"secondaryUnit":"","floodCategory":"fcst_not_current","validTime":"0001-01-01T00:00:00Z"}}},{"lid":"BWRT2","name":"Sabine River near Bon Wier","latitude":30.746944444444,"longitude":-93.608333333333,"status":{"observed":{"primary":16.41,"primaryUnit":"ft","secondary":3.59,"secondaryUnit":"kcfs","floodCategory":"no_flooding","validTime":"2026-07-23T19:15:00Z"},"forecast":{"primary":18.1,"primaryUnit":"ft","secondary":5.47,"secondaryUnit":"kcfs","floodCategory":"no_flooding","validTime":"2026-07-25T18:00:00Z"}}},{"lid":"BYBT2","name":"Brushy Creek at Cedar Park","latitude":30.525,"longitude":-97.749722,"status":{"observed":{"primary":0.83,"primaryUnit":"ft","secondary":0.0332,"secondaryUnit":"kcfs","floodCategory":"not_defined","validTime":"2026-07-23T20:00:00Z"},"forecast":{"primary":-999,"primaryUnit":"","secondary":-999,"secondaryUnit":"","floodCategory":"fcst_not_current","validTime":"0001-01-01T00:00:00Z"}}},{"lid":"CAAT2","name":"Nueces River at Calallen","latitude":27.883,"longitude":-97.625,"status":{"observed":{"primary":3.06,"primaryUnit":"ft","secondary":-999,"secondaryUnit":"kcfs","floodCategory":"no_flooding","validTime":"2026-07-23T19:30:00Z"},"forecast":{"primary":-999,"primaryUnit":"","secondary":-999,"secondaryUnit":"","floodCategory":"fcst_not_current","validTime":"0001-01-01T00:00:00Z"}}},{"lid":"CAKT2","name":"Carters Creek at FM 60 near College Station","latitude":30.6417333,"longitude":-96.308125,"status":{"observed":{"primary":240.79,"primaryUnit":"ft","secondary":-999,"secondaryUnit":"kcfs","floodCategory":"no_flooding","validTime":"2026-07-23T19:45:00Z"},"forecast":{"primary":-999,"primaryUnit":"","secondary":-999,"secondaryUnit":"","floodCategory":"fcst_not_current","validTime":"0001-01-01T00:00:00Z"}}},{"lid":"CBQL1","name":"Choupique Bayou at Highway 108","latitude":30.139444444444,"longitude":-93.422222222222,"status":{"observed":{"primary":1.14,"primaryUnit":"ft","secondary":-999,"secondaryUnit":"kcfs","floodCategory":"no_flooding","validTime":"2026-07-23T19:50:00Z"},"forecast":{"primary":-999,"primaryUnit":"","secondary":-999,"secondaryUnit":"","floodCategory":"fcst_not_current","validTime":"0001-01-01T00:00:00Z"}}},{"lid":"CBST2","name":"Colorado River (TX) at Columbus","latitude":29.70611111111111,"longitude":-96.53666666666666,"status":{"observed":{"primary":19.88,"primaryUnit":"ft","secondary":11.3,"secondaryUnit":"kcfs","floodCategory":"no_flooding","validTime":"2026-07-23T19:15:00Z"},"forecast":{"primary":19.9,"primaryUnit":"ft","secondary":11.3,"secondaryUnit":"kcfs","floodCategory":"no_flooding","validTime":"2026-07-23T21:00:00Z"}}},{"lid":"CBVT2","name":"Nueces River near Bluntzer","latitude":27.9375,"longitude":-97.7755,"status":{"observed":{"primary":7.58,"primaryUnit":"ft","secondary":0.113,"secondaryUnit":"kcfs","floodCategory":"no_flooding","validTime":"2026-07-23T19:00:00Z"},"forecast":{"primary":-999,"primaryUnit":"","secondary":-999,"secondaryUnit":"","floodCategory":"fcst_not_current","validTime":"0001-01-01T00:00:00Z"}}},{"lid":"CCDL1","name":"Choupique Bayou at Dave Dugas Road","latitude":30.168611111111,"longitude":-93.426944444444,"status":{"observed":{"primary":-999,"primaryUnit":"","secondary":-999,"secondaryUnit":"","floodCategory":"obs_not_current","validTime":"0001-01-01T00:00:00Z"},"forecast":{"primary":-999,"primaryUnit":"","secondary":-999,"secondaryUnit":"","floodCategory":"fcst_not_current","validTime":"0001-01-01T00:00:00Z"}}},{"lid":"CCGT2","name":"Cypress Creek near Cypress","latitude":29.973333333333,"longitude":-95.598333333333,"status":{"observed":{"primary":102.43,"primaryUnit":"ft","secondary":0.0307,"secondaryUnit":"kcfs","floodCategory":"no_flooding","validTime":"2026-07-23T19:45:00Z"},"forecast":{"primary":-999,"primaryUnit":"","secondary":-999,"secondaryUnit":"","floodCategory":"fcst_not_current","validTime":"0001-01-01T00:00:00Z"}}},{"lid":"CCVT2","name":"Coleto Creek at Highway 59","latitude":28.731,"longitude":-97.138,"status":{"observed":{"primary":3.86,"primaryUnit":"ft","secondary":0.0019,"secondaryUnit":"kcfs","floodCategory":"no_flooding","validTime":"2026-07-23T19:30:00Z"},"forecast":{"primary":3.9,"primaryUnit":"ft","secondary":0.002,"secondaryUnit":"kcfs","floodCategory":"no_flooding","validTime":"2026-07-23T21:00:00Z"}}},{"lid":"CFKT2","name":"West Fork San Jacinto River near Conroe","latitude":30.244444444444,"longitude":-95.456944444444,"status":{"observed":{"primary":94.27,"primaryUnit":"ft","secondary":0.0685,"secondaryUnit":"kcfs","floodCategory":"no_flooding","validTime":"2026-07-23T19:15:00Z"},"forecast":{"primary":-999,"primaryUnit":"","secondary":-999,"secondaryUnit":"","floodCategory":"fcst_not_current","validTime":"0001-01-01T00:00:00Z"}}},{"lid":"CKDT2","name":"Coleto Creek at Coleto Creek Reservoir","latitude":28.7308333,"longitude":-97.1647222,"status":{"observed":{"primary":95.9,"primaryUnit":"ft","secondary":35.9,"secondaryUnit":"kcfs","floodCategory":"not_defined","validTime":"2026-07-23T19:00:00Z"},"forecast":{"primary":-999,"primaryUnit":"","secondary":-999,"secondaryUnit":"","floodCategory":"fcst_not_current","validTime":"0001-01-01T00:00:00Z"}}},{"lid":"CKET2","name":"Cole Creek at I-10","latitude":30.1321,"longitude":-93.8638,"status":{"observed":{"primary":1.53,"primaryUnit":"ft","secondary":-999,"secondaryUnit":"kcfs","floodCategory":"no_flooding","validTime":"2026-07-23T19:45:00Z"},"forecast":{"primary":-999,"primaryUnit":"","secondary":-999,"secondaryUnit":"","floodCategory":"fcst_not_current","validTime":"0001-01-01T00:00:00Z"}}},{"lid":"CLDT2","name":"East Fork San Jacinto River at Cleveland","latitude":30.336388888889,"longitude":-95.103888888889,"status":{"observed":{"primary":4.8,"primaryUnit":"ft","secondary":0.035,"secondaryUnit":"kcfs","floodCategory":"no_flooding","validTime":"2026-07-23T19:30:00Z"},"forecast":{"primary":-999,"primaryUnit":"","secondary":-999,"secondaryUnit":"","floodCategory":"fcst_not_current","validTime":"0001-01-01T00:00:00Z"}}},{"lid":"CMNT2","name":"Little River at Cameron","latitude":30.835,"longitude":-96.946388888889,"status":{"observed":{"primary":3.13,"primaryUnit":"ft","secondary":0.853,"secondaryUnit":"kcfs","floodCategory":"no_flooding","validTime":"2026-07-23T19:15:00Z"},"forecast":{"primary":-999,"primaryUnit":"","secondary":-999,"secondaryUnit":"","floodCategory":"fcst_not_current","validTime":"0001-01-01T00:00:00Z"}}},{"lid":"CMVT2","name":"Caney Creek at Hwy 21 near Madisonville","latitude":30.9371,"longitude":-95.9356,"status":{"observed":{"primary":219.05,"primaryUnit":"ft","secondary":-999,"secondaryUnit":"kcfs","floodCategory":"no_flooding","validTime":"2026-07-23T19:55:00Z"},"forecast":{"primary":-999,"primaryUnit":"","secondary":-999,"secondaryUnit":"","floodCategory":"fcst_not_current","validTime":"0001-01-01T00:00:00Z"}}},{"lid":"CODT2","name":"Sandy Creek near Cordele","latitude":29.16,"longitude":-96.546111111111,"status":{"observed":{"primary":6.06,"primaryUnit":"ft","secondary":0.0708,"secondaryUnit":"kcfs","floodCategory":"no_flooding","validTime":"2026-07-23T19:15:00Z"},"forecast":{"primary":-999,"primaryUnit":"","secondary":-999,"secondaryUnit":"","floodCategory":"fcst_not_current","validTime":"0001-01-01T00:00:00Z"}}},{"lid":"COWT2","name":"Cow Bayou at SH 87","latitude":30.0445,"longitude":-93.8214,"status":{"observed":{"primary":1.1,"primaryUnit":"ft","secondary":-999,"secondaryUnit":"kcfs","floodCategory":"no_flooding","validTime":"2026-07-23T19:45:00Z"},"forecast":{"primary":-999,"primaryUnit":"","secondary":-999,"secondaryUnit":"","floodCategory":"fcst_not_current","validTime":"0001-01-01T00:00:00Z"}}},{"lid":"CPNT2","name":"Tide Gauge at Copano Bay","latitude":28.116944444444446,"longitude":-97.0175,"status":{"observed":{"primary":0.04,"primaryUnit":"ft","secondary":-999,"secondaryUnit":"kcfs","floodCategory":"no_flooding","validTime":"2026-07-23T19:54:00Z"},"forecast":{"primary":0.02,"primaryUnit":"ft","secondary":-999,"secondaryUnit":"kcfs","floodCategory":"fcst_not_current","validTime":"2026-07-24T16:00:00Z"}}},{"lid":"CSRT2","name":"San Bernard River near Chesterville","latitude":29.6605,"longitude":-96.2436,"status":{"observed":{"primary":157.57,"primaryUnit":"ft","secondary":0.0627,"secondaryUnit":"kcfs","floodCategory":"not_defined","validTime":"2026-07-23T19:00:00Z"},"forecast":{"primary":-999,"primaryUnit":"","secondary":-999,"secondaryUnit":"","floodCategory":"fcst_not_current","validTime":"0001-01-01T00:00:00Z"}}},{"lid":"CSSL1","name":"Bess Branch at Alligator Park","latitude":30.3621,"longitude":-93.7221,"status":{"observed":{"primary":11.53,"primaryUnit":"ft","secondary":-999,"secondaryUnit":"kcfs","floodCategory":"no_flooding","validTime":"2026-07-23T20:05:00Z"},"forecast":{"primary":-999,"primaryUnit":"","secondary":-999,"secondaryUnit":"","floodCategory":"fcst_not_current","validTime":"0001-01-01T00:00:00Z"}}},{"lid":"CUET2","name":"Guadalupe River near Cuero","latitude":29.090277777778,"longitude":-97.329444444444,"status":{"observed":{"primary":8.03,"primaryUnit":"ft","secondary":0.674,"secondaryUnit":"kcfs","floodCategory":"no_flooding","validTime":"2026-07-23T19:30:00Z"},"forecast":{"primary":8.1,"primaryUnit":"ft","secondary":0.706,"secondaryUnit":"kcfs","floodCategory":"no_flooding","validTime":"2026-07-23T21:00:00Z"}}},{"lid":"CYST2","name":"Crystal Creek at FM 1314 near Conroe","latitude":30.24138611,"longitude":-95.38298056,"status":{"observed":{"primary":98.37,"primaryUnit":"ft","secondary":-999,"secondaryUnit":"kcfs","floodCategory":"no_flooding","validTime":"2026-07-23T19:45:00Z"},"forecast":{"primary":-999,"primaryUnit":"","secondary":-999,"secondaryUnit":"","floodCategory":"fcst_not_current","validTime":"0001-01-01T00:00:00Z"}}},{"lid":"DEYT2","name":"East Yegua Creek near Dime Box","latitude":30.407222222222,"longitude":-96.817222222222,"status":{"observed":{"primary":1.65,"primaryUnit":"ft","secondary":0.0049,"secondaryUnit":"kcfs","floodCategory":"no_flooding","validTime":"2026-07-23T19:45:00Z"},"forecast":{"primary":-999,"primaryUnit":"","secondary":-999,"secondaryUnit":"","floodCategory":"fcst_not_current","validTime":"0001-01-01T00:00:00Z"}}},{"lid":"DLWT2","name":"Peach Creek below Dilworth","latitude":29.473888888889,"longitude":-97.316388888889,"status":{"observed":{"primary":6.58,"primaryUnit":"ft","secondary":0.0014,"secondaryUnit":"kcfs","floodCategory":"not_defined","validTime":"2026-07-23T19:00:00Z"},"forecast":{"primary":-999,"primaryUnit":"","secondary":-999,"secondaryUnit":"","floodCategory":"fcst_not_current","validTime":"0001-01-01T00:00:00Z"}}},{"lid":"DMYT2","name":"Middle Yegua Creek near Dime Box","latitude":30.339166666667,"longitude":-96.904444444444,"status":{"observed":{"primary":1.28,"primaryUnit":"ft","secondary":0.002,"secondaryUnit":"kcfs","floodCategory":"no_flooding","validTime":"2026-07-23T19:00:00Z"},"forecast":{"primary":-999,"primaryUnit":"","secondary":-999,"secondaryUnit":"","floodCategory":"fcst_not_current","validTime":"0001-01-01T00:00:00Z"}}},{"lid":"DNBT2","name":"Dickinson Bayou at SH 517 near Alvin","latitude":29.436075,"longitude":-95.17013056,"status":{"observed":{"primary":12.58,"primaryUnit":"ft","secondary":-999,"secondaryUnit":"kcfs","floodCategory":"no_flooding","validTime":"2026-07-23T19:45:00Z"},"forecast":{"primary":-999,"primaryUnit":"","secondary":-999,"secondaryUnit":"","floodCategory":"fcst_not_current","validTime":"0001-01-01T00:00:00Z"}}},{"lid":"DRAT2","name":"Spring Branch at SH 242 near Splendora","latitude":30.21981111,"longitude":-95.24920833,"status":{"observed":{"primary":96.64,"primaryUnit":"ft","secondary":-999,"secondaryUnit":"kcfs","floodCategory":"no_flooding","validTime":"2026-07-23T19:45:00Z"},"forecast":{"primary":-999,"primaryUnit":"","secondary":-999,"secondaryUnit":"","floodCategory":"fcst_not_current","validTime":"0001-01-01T00:00:00Z"}}},{"lid":"DUPT2","name":"Guadalupe River near Bloomington","latitude":28.661944444444,"longitude":-96.965277777778,"status":{"observed":{"primary":13.77,"primaryUnit":"ft","secondary":1.13,"secondaryUnit":"kcfs","floodCategory":"no_flooding","validTime":"2026-07-23T19:00:00Z"},"forecast":{"primary":13.7,"primaryUnit":"ft","secondary":1.12,"secondaryUnit":"kcfs","floodCategory":"no_flooding","validTime":"2026-07-23T21:00:00Z"}}},{"lid":"DWYT2","name":"Sabine River at Deweyville","latitude":30.303611111111,"longitude":-93.743611111111,"status":{"observed":{"primary":18.57,"primaryUnit":"ft","secondary":2.67,"secondaryUnit":"kcfs","floodCategory":"no_flooding","validTime":"2026-07-23T19:45:00Z"},"forecast":{"primary":20.7,"primaryUnit":"ft","secondary":4.66,"secondaryUnit":"kcfs","floodCategory":"no_flooding","validTime":"2026-07-27T06:00:00Z"}}},{"lid":"EBBT2","name":"San Bernard River at East Bernard","latitude":29.533055555556,"longitude":-96.056111111111,"status":{"observed":{"primary":7.1,"primaryUnit":"ft","secondary":0.02,"secondaryUnit":"kcfs","floodCategory":"no_flooding","validTime":"2026-07-23T20:00:00Z"},"forecast":{"primary":-999,"primaryUnit":"","secondary":-999,"secondaryUnit":"","floodCategory":"fcst_not_current","validTime":"0001-01-01T00:00:00Z"}}},{"lid":"ECYT2","name":"East Fork Crystal Creek at FM 1485 near Conroe","latitude":30.2949,"longitude":-95.35210556,"status":{"observed":{"primary":-999,"primaryUnit":"","secondary":-999,"secondaryUnit":"","floodCategory":"obs_not_current","validTime":"0001-01-01T00:00:00Z"},"forecast":{"primary":-999,"primaryUnit":"","secondary":-999,"secondaryUnit":"","floodCategory":"fcst_not_current","validTime":"0001-01-01T00:00:00Z"}}},{"lid":"EDNT2","name":"Lavaca River near Edna","latitude":28.959722222222,"longitude":-96.686111111111,"status":{"observed":{"primary":4.99,"primaryUnit":"ft","secondary":0.0272,"secondaryUnit":"kcfs","floodCategory":"no_flooding","validTime":"2026-07-23T19:15:00Z"},"forecast":{"primary":-999,"primaryUnit":"","secondary":-999,"secondaryUnit":"","floodCategory":"fcst_not_current","validTime":"0001-01-01T00:00:00Z"}}},{"lid":"EGYT2","name":"Wilbarger Creek at Elgin","latitude":30.231944444444,"longitude":-97.432777777778,"status":{"observed":{"primary":5.18,"primaryUnit":"ft","secondary":0.0045,"secondaryUnit":"kcfs","floodCategory":"no_flooding","validTime":"2026-07-23T20:00:00Z"},"forecast":{"primary":-999,"primaryUnit":"","secondary":-999,"secondaryUnit":"","floodCategory":"fcst_not_current","validTime":"0001-01-01T00:00:00Z"}}},{"lid":"EGZT2","name":"Big Sandy Creek (TX) near Elgin","latitude":30.2656,"longitude":-97.3281,"status":{"observed":{"primary":0.55,"primaryUnit":"ft","secondary":0.0001,"secondaryUnit":"kcfs","floodCategory":"no_flooding","validTime":"2026-07-23T20:00:00Z"},"forecast":{"primary":-999,"primaryUnit":"","secondary":-999,"secondaryUnit":"","floodCategory":"fcst_not_current","validTime":"0001-01-01T00:00:00Z"}}},{"lid":"EMAT2","name":"Tide Station (HGX) at East Matagorda","latitude":28.71,"longitude":-95.9138,"status":{"observed":{"primary":0.56,"primaryUnit":"ft","secondary":-999,"secondaryUnit":"kcfs","floodCategory":"no_flooding","validTime":"2026-07-23T19:54:00Z"},"forecast":{"primary":0.29,"primaryUnit":"ft","secondary":-999,"secondaryUnit":"kcfs","floodCategory":"fcst_not_current","validTime":"2026-07-24T12:00:00Z"}}},{"lid":"EPTT2","name":"Tide Station (HGX) at San Leon","latitude":29.48,"longitude":-94.9183,"status":{"observed":{"primary":1.65,"primaryUnit":"ft","secondary":-999,"secondaryUnit":"kcfs","floodCategory":"no_flooding","validTime":"2026-07-23T19:54:00Z"},"forecast":{"primary":1.24,"primaryUnit":"ft","secondary":-999,"secondaryUnit":"kcfs","floodCategory":"fcst_not_current","validTime":"2026-07-26T16:00:00Z"}}},{"lid":"EVDT2","name":"Neches River at Evadale","latitude":30.355555555556,"longitude":-94.093055555556,"status":{"observed":{"primary":7.58,"primaryUnit":"ft","secondary":3.25,"secondaryUnit":"kcfs","floodCategory":"no_flooding","validTime":"2026-07-23T19:00:00Z"},"forecast":{"primary":7.5,"primaryUnit":"ft","secondary":3.19,"secondaryUnit":"kcfs","floodCategory":"no_flooding","validTime":"2026-07-24T00:00:00Z"}}},{"lid":"FBCT2","name":"Cummins Creek at Frelsburg","latitude":29.825833333333,"longitude":-96.580555555556,"status":{"observed":{"primary":6.41,"primaryUnit":"ft","secondary":0.0538,"secondaryUnit":"kcfs","floodCategory":"no_flooding","validTime":"2026-07-23T20:00:00Z"},"forecast":{"primary":-999,"primaryUnit":"","secondary":-999,"secondaryUnit":"","floodCategory":"fcst_not_current","validTime":"0001-01-01T00:00:00Z"}}},{"lid":"FCTT2","name":"Cibolo Creek near Falls City","latitude":29.013888888889,"longitude":-97.93,"status":{"observed":{"primary":3.1,"primaryUnit":"ft","secondary":0.425,"secondaryUnit":"kcfs","floodCategory":"no_flooding","validTime":"2026-07-23T19:15:00Z"},"forecast":{"primary":-999,"primaryUnit":"","secondary":-999,"secondaryUnit":"","floodCategory":"fcst_not_current","validTime":"0001-01-01T00:00:00Z"}}},{"lid":"FCWT2","name":"Lake Creek above The Woodlands","latitude":30.258333333333333,"longitude":-95.56361111111111,"status":{"observed":{"primary":121.97,"primaryUnit":"ft","secondary":0.0401,"secondaryUnit":"kcfs","floodCategory":"no_flooding","validTime":"2026-07-23T19:45:00Z"},"forecast":{"primary":-999,"primaryUnit":"","secondary":-999,"secondaryUnit":"","floodCategory":"fcst_not_current","validTime":"0001-01-01T00:00:00Z"}}},{"lid":"FMFT2","name":"Berry Creek near Florence, TX","latitude":30.8106,"longitude":-97.826,"status":{"observed":{"primary":6.99,"primaryUnit":"ft","secondary":-999,"secondaryUnit":"kcfs","floodCategory":"not_defined","validTime":"2026-07-23T19:50:00Z"},"forecast":{"primary":-999,"primaryUnit":"","secondary":-999,"secondaryUnit":"","floodCategory":"fcst_not_current","validTime":"0001-01-01T00:00:00Z"}}},{"lid":"FPST2","name":"Tide Station (HGX) at Freeport","latitude":28.935,"longitude":-95.295,"status":{"observed":{"primary":1.18,"primaryUnit":"ft","secondary":-999,"secondaryUnit":"kcfs","floodCategory":"no_flooding","validTime":"2026-07-23T19:54:00Z"},"forecast":{"primary":1.69,"primaryUnit":"ft","secondary":-999,"secondaryUnit":"kcfs","floodCategory":"fcst_not_current","validTime":"2026-07-26T10:00:00Z"}}},{"lid":"FRLT2","name":"Redgate Creek at Frelsburg","latitude":29.798888888889,"longitude":-96.531944444444,"status":{"observed":{"primary":10.39,"primaryUnit":"ft","secondary":0.0013,"secondaryUnit":"kcfs","floodCategory":"no_flooding","validTime":"2026-07-23T20:00:00Z"},"forecast":{"primary":-999,"primaryUnit":"","secondary":-999,"secondaryUnit":"","floodCategory":"fcst_not_current","validTime":"0001-01-01T00:00:00Z"}}},{"lid":"GBHT2","name":"Greens Bayou at Houston","latitude":29.918055555556,"longitude":-95.306666666667,"status":{"observed":{"primary":39.11,"primaryUnit":"ft","secondary":0.0417,"secondaryUnit":"kcfs","floodCategory":"no_flooding","validTime":"2026-07-23T19:30:00Z"},"forecast":{"primary":-999,"primaryUnit":"","secondary":-999,"secondaryUnit":"","floodCategory":"fcst_not_current","validTime":"0001-01-01T00:00:00Z"}}},{"lid":"GBLT2","name":"Greens Bayou near Houston","latitude":29.836944444444,"longitude":-95.233055555556,"status":{"observed":{"primary":1.87,"primaryUnit":"ft","secondary":1.12,"secondaryUnit":"kcfs","floodCategory":"no_flooding","validTime":"2026-07-23T19:45:00Z"},"forecast":{"primary":-999,"primaryUnit":"","secondary":-999,"secondaryUnit":"","floodCategory":"fcst_not_current","validTime":"0001-01-01T00:00:00Z"}}},{"lid":"GCST2","name":"Geronimo Creek near Seguin 2NE","latitude":29.5905,"longitude":-97.9347,"status":{"observed":{"primary":3.87,"primaryUnit":"ft","secondary":-999,"secondaryUnit":"kcfs","floodCategory":"not_defined","validTime":"2026-07-23T19:00:00Z"},"forecast":{"primary":-999,"primaryUnit":"","secondary":-999,"secondaryUnit":"","floodCategory":"fcst_not_current","validTime":"0001-01-01T00:00:00Z"}}},{"lid":"GDHT2","name":"Guadalupe River at Hwy 183 near Hochheim","latitude":29.314444444444444,"longitude":-97.30333333333333,"status":{"observed":{"primary":6.73,"primaryUnit":"ft","secondary":0.628,"secondaryUnit":"kcfs","floodCategory":"no_flooding","validTime":"2026-07-23T19:00:00Z"},"forecast":{"primary":-999,"primaryUnit":"","secondary":-999,"secondaryUnit":"","floodCategory":"fcst_not_current","validTime":"0001-01-01T00:00:00Z"}}},{"lid":"GERT2","name":"North Fork of the San Gabriel River near Georgetown","latitude":30.661666666667,"longitude":-97.711111111111,"status":{"observed":{"primary":4.31,"primaryUnit":"ft","secondary":0.0033,"secondaryUnit":"kcfs","floodCategory":"not_defined","validTime":"2026-07-23T19:15:00Z"},"forecast":{"primary":-999,"primaryUnit":"","secondary":-999,"secondaryUnit":"","floodCategory":"fcst_not_current","validTime":"0001-01-01T00:00:00Z"}}},{"lid":"GETT2","name":"San Gabriel River at Georgetown South Fork","latitude":30.625555555556,"longitude":-97.690833333333,"status":{"observed":{"primary":2.28,"primaryUnit":"ft","secondary":0.0562,"secondaryUnit":"kcfs","floodCategory":"no_flooding","validTime":"2026-07-23T20:00:00Z"},"forecast":{"primary":-999,"primaryUnit":"","secondary":-999,"secondaryUnit":"","floodCategory":"fcst_not_current","validTime":"0001-01-01T00:00:00Z"}}},{"lid":"GGLT2","name":"San Gabriel River at Lake Georgetown","latitude":30.6675,"longitude":-97.727222222222,"status":{"observed":{"primary":792.23,"primaryUnit":"ft","secondary":16.1,"secondaryUnit":"kcfs","floodCategory":"not_defined","validTime":"2026-07-23T19:00:00Z"},"forecast":{"primary":-999,"primaryUnit":"","secondary":-999,"secondaryUnit":"","floodCategory":"fcst_not_current","validTime":"0001-01-01T00:00:00Z"}}},{"lid":"GLIT2","name":"San Antonio River at Goliad","latitude":28.649166666667,"longitude":-97.384722222222,"status":{"observed":{"primary":8.08,"primaryUnit":"ft","secondary":1.09,"secondaryUnit":"kcfs","floodCategory":"no_flooding","validTime":"2026-07-23T19:45:00Z"},"forecast":{"primary":-999,"primaryUnit":"","secondary":-999,"secondaryUnit":"","floodCategory":"fcst_not_current","validTime":"0001-01-01T00:00:00Z"}}},{"lid":"GMKT2","name":"Goose Creek near McNair","latitude":29.8014,"longitude":-95.0047,"status":{"observed":{"primary":15.75,"primaryUnit":"ft","secondary":-999,"secondaryUnit":"kcfs","floodCategory":"no_flooding","validTime":"2026-07-23T19:45:00Z"},"forecast":{"primary":-999,"primaryUnit":"","secondary":-999,"secondaryUnit":"","floodCategory":"fcst_not_current","validTime":"0001-01-01T00:00:00Z"}}},{"lid":"GNDT2","name":"West Mustang Creek near Ganado","latitude":29.071388888889,"longitude":-96.466944444444,"status":{"observed":{"primary":5.21,"primaryUnit":"ft","secondary":0.0305,"secondaryUnit":"kcfs","floodCategory":"no_flooding","validTime":"2026-07-23T19:45:00Z"},"forecast":{"primary":-999,"primaryUnit":"","secondary":-999,"secondaryUnit":"","floodCategory":"fcst_not_current","validTime":"0001-01-01T00:00:00Z"}}},{"lid":"GNGT2","name":"San Gabriel River at Granger Lake","latitude":30.692777777778,"longitude":-97.326111111111,"status":{"observed":{"primary":506.28,"primaryUnit":"ft","secondary":36.3,"secondaryUnit":"kcfs","floodCategory":"not_defined","validTime":"2026-07-23T19:00:00Z"},"forecast":{"primary":-999,"primaryUnit":"","secondary":-999,"secondaryUnit":"","floodCategory":"fcst_not_current","validTime":"0001-01-01T00:00:00Z"}}},{"lid":"GNJT2","name":"Tide Station (HGX) at Galveston Bay Entrance North Jetty","latitude":29.3583,"longitude":-94.725,"status":{"observed":{"primary":1.62,"primaryUnit":"ft","secondary":-999,"secondaryUnit":"kcfs","floodCategory":"no_flooding","validTime":"2026-07-23T19:54:00Z"},"forecast":{"primary":1.77,"primaryUnit":"ft","secondary":-999,"secondaryUnit":"kcfs","floodCategory":"fcst_not_current","validTime":"2026-07-26T10:00:00Z"}}},{"lid":"GNLT2","name":"Guadalupe River at Gonzales","latitude":29.484302,"longitude":-97.44754,"status":{"observed":{"primary":12,"primaryUnit":"ft","secondary":0.671,"secondaryUnit":"kcfs","floodCategory":"no_flooding","validTime":"2026-07-23T19:45:00Z"},"forecast":{"primary":12,"primaryUnit":"ft","secondary":0.671,"secondaryUnit":"kcfs","floodCategory":"no_flooding","validTime":"2026-07-24T15:00:00Z"}}},{"lid":"GNRT2","name":"North Fork San Gabriel River at Ronald Reagan Blvd near Leander 8N","latitude":30.697777777778,"longitude":-97.849166666667,"status":{"observed":{"primary":2.68,"primaryUnit":"ft","secondary":0.0461,"secondaryUnit":"kcfs","floodCategory":"not_defined","validTime":"2026-07-23T19:45:00Z"},"forecast":{"primary":-999,"primaryUnit":"","secondary":-999,"secondaryUnit":"","floodCategory":"fcst_not_current","validTime":"0001-01-01T00:00:00Z"}}},{"lid":"GOBT2","name":"Goode Branch at CR 773","latitude":30.43,"longitude":-93.9732,"status":{"observed":{"primary":1.44,"primaryUnit":"ft","secondary":-999,"secondaryUnit":"kcfs","floodCategory":"no_flooding","validTime":"2026-07-23T20:00:00Z"},"forecast":{"primary":-999,"primaryUnit":"","secondary":-999,"secondaryUnit":"","floodCategory":"fcst_not_current","validTime":"0001-01-01T00:00:00Z"}}},{"lid":"GRIT2","name":"Trinity River near Goodrich","latitude":30.5719444444444,"longitude":-94.9486111111111,"status":{"observed":{"primary":5,"primaryUnit":"ft","secondary":2.08,"secondaryUnit":"kcfs","floodCategory":"no_flooding","validTime":"2026-07-23T19:45:00Z"},"forecast":{"primary":5,"primaryUnit":"ft","secondary":2.08,"secondaryUnit":"kcfs","floodCategory":"no_flooding","validTime":"2026-07-24T00:00:00Z"}}},{"lid":"GRRT2","name":"Tide Station (HGX) at Galveston Railroad Bridge","latitude":29.3016,"longitude":-94.8966,"status":{"observed":{"primary":1.5,"primaryUnit":"ft","secondary":-999,"secondaryUnit":"kcfs","floodCategory":"no_flooding","validTime":"2026-07-23T19:54:00Z"},"forecast":{"primary":1.19,"primaryUnit":"ft","secondary":-999,"secondaryUnit":"kcfs","floodCategory":"fcst_not_current","validTime":"2026-07-24T11:00:00Z"}}},{"lid":"GSST2","name":"Brays Bayou at Gessner Drive","latitude":29.6725,"longitude":-95.528055555556,"status":{"observed":{"primary":38.62,"primaryUnit":"ft","secondary":0.0691,"secondaryUnit":"kcfs","floodCategory":"no_flooding","validTime":"2026-07-23T19:15:00Z"},"forecast":{"primary":-999,"primaryUnit":"","secondary":-999,"secondaryUnit":"","floodCategory":"fcst_not_current","validTime":"0001-01-01T00:00:00Z"}}},{"lid":"GTOT2","name":"Tide Station (HGX) at NOS Station at Pier 21 Galveston","latitude":29.31,"longitude":-94.7933,"status":{"observed":{"primary":1.42,"primaryUnit":"ft","secondary":-999,"secondaryUnit":"kcfs","floodCategory":"no_flooding","validTime":"2026-07-23T19:54:00Z"},"forecast":{"primary":1.47,"primaryUnit":"ft","secondary":-999,"secondaryUnit":"kcfs","floodCategory":"fcst_not_current","validTime":"2026-07-25T11:00:00Z"}}},{"lid":"GTWT2","name":"Berry Creek near Georgetown","latitude":30.703055555556,"longitude":-97.666111111111,"status":{"observed":{"primary":11.75,"primaryUnit":"ft","secondary":0.0157,"secondaryUnit":"kcfs","floodCategory":"not_defined","validTime":"2026-07-23T19:30:00Z"},"forecast":{"primary":-999,"primaryUnit":"","secondary":-999,"secondaryUnit":"","floodCategory":"fcst_not_current","validTime":"0001-01-01T00:00:00Z"}}},{"lid":"GWGT2","name":"Guadalupe River at CR 143 near Gonzales","latitude":29.4875,"longitude":-97.5875,"status":{"observed":{"primary":6.47,"primaryUnit":"ft","secondary":0.4,"secondaryUnit":"kcfs","floodCategory":"not_defined","validTime":"2026-07-23T19:30:00Z"},"forecast":{"primary":-999,"primaryUnit":"","secondary":-999,"secondaryUnit":"","floodCategory":"fcst_not_current","validTime":"0001-01-01T00:00:00Z"}}},{"lid":"GYST2","name":"Grassy Creek at TX 105 near Navasota","latitude":30.35330556,"longitude":-95.99627778,"status":{"observed":{"primary":219.03,"primaryUnit":"ft","secondary":-999,"secondaryUnit":"kcfs","floodCategory":"no_flooding","validTime":"2026-07-23T19:45:00Z"},"forecast":{"primary":-999,"primaryUnit":"","secondary":-999,"secondaryUnit":"","floodCategory":"fcst_not_current","validTime":"0001-01-01T00:00:00Z"}}},{"lid":"HAJT2","name":"Sandy Creek (E TX) at Jasper","latitude":30.9184,"longitude":-94.004,"status":{"observed":{"primary":0.68,"primaryUnit":"ft","secondary":-999,"secondaryUnit":"kcfs","floodCategory":"no_flooding","validTime":"2026-07-23T20:00:00Z"},"forecast":{"primary":-999,"primaryUnit":"","secondary":-999,"secondaryUnit":"","floodCategory":"fcst_not_current","validTime":"0001-01-01T00:00:00Z"}}},{"lid":"HBMT2","name":"Brays Bayou at Houston","latitude":29.696944444444,"longitude":-95.411944444444,"status":{"observed":{"primary":16.71,"primaryUnit":"ft","secondary":0.116,"secondaryUnit":"kcfs","floodCategory":"no_flooding","validTime":"2026-07-23T19:45:00Z"},"forecast":{"primary":-999,"primaryUnit":"","secondary":-999,"secondaryUnit":"","floodCategory":"fcst_not_current","validTime":"0001-01-01T00:00:00Z"}}},{"lid":"HBRT2","name":"Brazos River at FM 485 Near Hearne","latitude":30.865,"longitude":-96.695,"status":{"observed":{"primary":-999,"primaryUnit":"","secondary":-999,"secondaryUnit":"","floodCategory":"obs_not_current","validTime":"0001-01-01T00:00:00Z"},"forecast":{"primary":-999,"primaryUnit":"","secondary":-999,"secondaryUnit":"","floodCategory":"fcst_not_current","validTime":"0001-01-01T00:00:00Z"}}},{"lid":"HCCT2","name":"Clear Creek at Friendswood","latitude":29.517222222222,"longitude":-95.178333333333,"status":{"observed":{"primary":1.32,"primaryUnit":"ft","secondary":1.56,"secondaryUnit":"kcfs","floodCategory":"no_flooding","validTime":"2026-07-23T19:15:00Z"},"forecast":{"primary":-999,"primaryUnit":"","secondary":-999,"secondaryUnit":"","floodCategory":"fcst_not_current","validTime":"0001-01-01T00:00:00Z"}}},{"lid":"HCDT2","name":"Cedar Bayou near Crosby","latitude":29.9725,"longitude":-94.985555555556,"status":{"observed":{"primary":36.74,"primaryUnit":"ft","secondary":0.0057,"secondaryUnit":"kcfs","floodCategory":"no_flooding","validTime":"2026-07-23T19:30:00Z"},"forecast":{"primary":-999,"primaryUnit":"","secondary":-999,"secondaryUnit":"","floodCategory":"fcst_not_current","validTime":"0001-01-01T00:00:00Z"}}},{"lid":"HFFT2","name":"Luce Bayou near Huffman","latitude":30.109444444444,"longitude":-95.059722222222,"status":{"observed":{"primary":54.87,"primaryUnit":"ft","secondary":0.0398,"secondaryUnit":"kcfs","floodCategory":"no_flooding","validTime":"2026-07-23T19:15:00Z"},"forecast":{"primary":-999,"primaryUnit":"","secondary":-999,"secondaryUnit":"","floodCategory":"fcst_not_current","validTime":"0001-01-01T00:00:00Z"}}},{"lid":"HFXT2","name":"Blanco River above at Halifax Ranch near Kyle","latitude":30.005555555555556,"longitude":-97.9525,"status":{"observed":{"primary":1.25,"primaryUnit":"ft","secondary":0.0528,"secondaryUnit":"kcfs","floodCategory":"not_defined","validTime":"2026-07-23T19:30:00Z"},"forecast":{"primary":-999,"primaryUnit":"","secondary":-999,"secondaryUnit":"","floodCategory":"fcst_not_current","validTime":"0001-01-01T00:00:00Z"}}},{"lid":"HGBT2","name":"Greens Bayou near Houston","latitude":29.956666666667,"longitude":-95.417777777778,"status":{"observed":{"primary":65.72,"primaryUnit":"ft","secondary":0.0209,"secondaryUnit":"kcfs","floodCategory":"no_flooding","validTime":"2026-07-23T19:45:00Z"},"forecast":{"primary":-999,"primaryUnit":"","secondary":-999,"secondaryUnit":"","floodCategory":"fcst_not_current","validTime":"0001-01-01T00:00:00Z"}}},{"lid":"HGLT2","name":"Highland Bayou at FM 646 near Santa Fe","latitude":29.38055833,"longitude":-95.09005278,"status":{"observed":{"primary":10.78,"primaryUnit":"ft","secondary":-999,"secondaryUnit":"kcfs","floodCategory":"no_flooding","validTime":"2026-07-23T19:45:00Z"},"forecast":{"primary":-999,"primaryUnit":"","secondary":-999,"secondaryUnit":"","floodCategory":"fcst_not_current","validTime":"0001-01-01T00:00:00Z"}}},{"lid":"HGTT2","name":"White Oak Bayou at Houston","latitude":29.775,"longitude":-95.396944444444,"status":{"observed":{"primary":7.71,"primaryUnit":"ft","secondary":0.0395,"secondaryUnit":"kcfs","floodCategory":"no_flooding","validTime":"2026-07-23T19:45:00Z"},"forecast":{"primary":-999,"primaryUnit":"","secondary":-999,"secondaryUnit":"","floodCategory":"fcst_not_current","validTime":"0001-01-01T00:00:00Z"}}},{"lid":"HIST2","name":"Tide Station (HGX) at High Island","latitude":29.5947,"longitude":-94.3902,"status":{"observed":{"primary":2.17,"primaryUnit":"ft","secondary":-999,"secondaryUnit":"kcfs","floodCategory":"no_flooding","validTime":"2026-07-23T19:54:00Z"},"forecast":{"primary":1.5,"primaryUnit":"ft","secondary":-999,"secondaryUnit":"kcfs","floodCategory":"fcst_not_current","validTime":"2026-07-25T15:00:00Z"}}},{"lid":"HJMT2","name":"Mayhaw Bayou at McCall Road","latitude":29.8508,"longitude":-94.3252,"status":{"observed":{"primary":0,"primaryUnit":"ft","secondary":-999,"secondaryUnit":"kcfs","floodCategory":"no_flooding","validTime":"2026-07-23T20:00:00Z"},"forecast":{"primary":-999,"primaryUnit":"","secondary":-999,"secondaryUnit":"","floodCategory":"fcst_not_current","validTime":"0001-01-01T00:00:00Z"}}},{"lid":"HMMT2","name":"West Fork San Jacinto River near Humble","latitude":30.026388888889,"longitude":-95.258333333333,"status":{"observed":{"primary":42.35,"primaryUnit":"ft","secondary":3.99,"secondaryUnit":"kcfs","floodCategory":"no_flooding","validTime":"2026-07-23T19:15:00Z"},"forecast":{"primary":-999,"primaryUnit":"","secondary":-999,"secondaryUnit":"","floodCategory":"fcst_not_current","validTime":"0001-01-01T00:00:00Z"}}},{"lid":"HNLT2","name":"Little Cypress Creek (SE TX) at County Road 3114","latitude":30.36608454,"longitude":-93.834875545,"status":{"observed":{"primary":-999,"primaryUnit":"","secondary":-999,"secondaryUnit":"","floodCategory":"obs_not_current","validTime":"0001-01-01T00:00:00Z"},"forecast":{"primary":-999,"primaryUnit":"","secondary":-999,"secondaryUnit":"","floodCategory":"fcst_not_current","validTime":"0001-01-01T00:00:00Z"}}},{"lid":"HNYT2","name":"Yellow Bayou at St. John Road","latitude":30.953673,"longitude":-93.6499399,"status":{"observed":{"primary":0,"primaryUnit":"ft","secondary":-999,"secondaryUnit":"kcfs","floodCategory":"no_flooding","validTime":"2026-07-23T19:15:00Z"},"forecast":{"primary":-999,"primaryUnit":"","secondary":-999,"secondaryUnit":"","floodCategory":"fcst_not_current","validTime":"0001-01-01T00:00:00Z"}}},{"lid":"HPDT2","name":"Brazos River near Hempstead","latitude":30.128888888889,"longitude":-96.1875,"status":{"observed":{"primary":13.25,"primaryUnit":"ft","secondary":2.83,"secondaryUnit":"kcfs","floodCategory":"no_flooding","validTime":"2026-07-23T19:15:00Z"},"forecast":{"primary":13.1,"primaryUnit":"ft","secondary":2.7,"secondaryUnit":"kcfs","floodCategory":"no_flooding","validTime":"2026-07-23T21:00:00Z"}}},{"lid":"HSIT2","name":"Sims Bayou at Houston","latitude":29.674167,"longitude":-95.289167,"status":{"observed":{"primary":1.73,"primaryUnit":"ft","secondary":-999,"secondaryUnit":"kcfs","floodCategory":"no_flooding","validTime":"2026-07-23T19:30:00Z"},"forecast":{"primary":-999,"primaryUnit":"","secondary":-999,"secondaryUnit":"","floodCategory":"fcst_not_current","validTime":"0001-01-01T00:00:00Z"}}},{"lid":"HSJT2","name":"San Jacinto River at Lake Houston","latitude":29.916111111111,"longitude":-95.141111111111,"status":{"observed":{"primary":42.08,"primaryUnit":"ft","secondary":24.2,"secondaryUnit":"kcfs","floodCategory":"not_defined","validTime":"2026-07-23T19:30:00Z"},"forecast":{"primary":-999,"primaryUnit":"","secondary":-999,"secondaryUnit":"","floodCategory":"fcst_not_current","validTime":"0001-01-01T00:00:00Z"}}},{"lid":"HTST2","name":"Lavaca River at Hallettsville","latitude":29.4431,"longitude":-96.9447,"status":{"observed":{"primary":2.91,"primaryUnit":"ft","secondary":0.0014,"secondaryUnit":"kcfs","floodCategory":"no_flooding","validTime":"2026-07-23T19:15:00Z"},"forecast":{"primary":-999,"primaryUnit":"","secondary":-999,"secondaryUnit":"","floodCategory":"fcst_not_current","validTime":"0001-01-01T00:00:00Z"}}},{"lid":"HYST2","name":"Hickory Slough at FM 865 near Pearland","latitude":29.56640556,"longitude":-95.35073611,"status":{"observed":{"primary":45.61,"primaryUnit":"ft","secondary":-999,"secondaryUnit":"kcfs","floodCategory":"no_flooding","validTime":"2026-07-23T19:45:00Z"},"forecast":{"primary":-999,"primaryUnit":"","secondary":-999,"secondaryUnit":"","floodCategory":"fcst_not_current","validTime":"0001-01-01T00:00:00Z"}}},{"lid":"JAIT2","name":"Taylor Bayou at Craigen Road","latitude":29.8805944,"longitude":-94.2571139,"status":{"observed":{"primary":1.32,"primaryUnit":"ft","secondary":-999,"secondaryUnit":"kcfs","floodCategory":"no_flooding","validTime":"2026-07-23T19:45:00Z"},"forecast":{"primary":-999,"primaryUnit":"","secondary":-999,"secondaryUnit":"","floodCategory":"fcst_not_current","validTime":"0001-01-01T00:00:00Z"}}},{"lid":"JUAT2","name":"Juanita Creek at SH 71 near Midfield","latitude":28.97359167,"longitude":-96.20851944,"status":{"observed":{"primary":33.33,"primaryUnit":"ft","secondary":-999,"secondaryUnit":"kcfs","floodCategory":"no_flooding","validTime":"2026-07-23T19:45:00Z"},"forecast":{"primary":-999,"primaryUnit":"","secondary":-999,"secondaryUnit":"","floodCategory":"fcst_not_current","validTime":"0001-01-01T00:00:00Z"}}},{"lid":"JYBT2","name":"Neches River at Downtown Beaumont","latitude":30.0868,"longitude":-94.0957,"status":{"observed":{"primary":-0.7,"primaryUnit":"ft","secondary":-999,"secondaryUnit":"kcfs","floodCategory":"low_threshold","validTime":"2026-07-23T19:45:00Z"},"forecast":{"primary":-999,"primaryUnit":"","secondary":-999,"secondaryUnit":"","floodCategory":"fcst_not_current","validTime":"0001-01-01T00:00:00Z"}}},{"lid":"JYIT2","name":"Hillebrandt Bayou at Hillebrandt Road","latitude":29.928333,"longitude":-94.11056,"status":{"observed":{"primary":1.6,"primaryUnit":"ft","secondary":-999,"secondaryUnit":"kcfs","floodCategory":"no_flooding","validTime":"2026-07-23T19:35:00Z"},"forecast":{"primary":-999,"primaryUnit":"","secondary":-999,"secondaryUnit":"","floodCategory":"fcst_not_current","validTime":"0001-01-01T00:00:00Z"}}},{"lid":"JYKT2","name":"Pine Island Bayou near Batson","latitude":30.2569,"longitude":-94.5683,"status":{"observed":{"primary":53.76,"primaryUnit":"ft","secondary":0.0574,"secondaryUnit":"kcfs","floodCategory":"no_flooding","validTime":"2026-07-23T19:35:00Z"},"forecast":{"primary":-999,"primaryUnit":"","secondary":-999,"secondaryUnit":"","floodCategory":"fcst_not_current","validTime":"0001-01-01T00:00:00Z"}}},{"lid":"JYLT2","name":"Little Pine Island Bayou near Thicket","latitude":30.35861111111111,"longitude":-94.5911111111111,"status":{"observed":{"primary":-999,"primaryUnit":"","secondary":-999,"secondaryUnit":"","floodCategory":"obs_not_current","validTime":"0001-01-01T00:00:00Z"},"forecast":{"primary":-999,"primaryUnit":"","secondary":-999,"secondaryUnit":"","floodCategory":"fcst_not_current","validTime":"0001-01-01T00:00:00Z"}}},{"lid":"JYMT2","name":"Black Creek at Highway 326","latitude":30.255555555555556,"longitude":-94.36472222222223,"status":{"observed":{"primary":-999,"primaryUnit":"","secondary":-999,"secondaryUnit":"","floodCategory":"obs_not_current","validTime":"0001-01-01T00:00:00Z"},"forecast":{"primary":-999,"primaryUnit":"","secondary":-999,"secondaryUnit":"","floodCategory":"fcst_not_current","validTime":"0001-01-01T00:00:00Z"}}},{"lid":"JYNT2","name":"Pine Island Bayou near Bevil Oaks","latitude":30.135277777778,"longitude":-94.278888888889,"status":{"observed":{"primary":6.25,"primaryUnit":"ft","secondary":-999,"secondaryUnit":"kcfs","floodCategory":"no_flooding","validTime":"2026-07-23T20:05:00Z"},"forecast":{"primary":-999,"primaryUnit":"","secondary":-999,"secondaryUnit":"","floodCategory":"fcst_not_current","validTime":"0001-01-01T00:00:00Z"}}},{"lid":"JZBT2","name":"Pine Island Bayou at Highway 326","latitude":30.09861111111111,"longitude":-94.40472222222222,"status":{"observed":{"primary":19.77,"primaryUnit":"ft","secondary":-999,"secondaryUnit":"kcfs","floodCategory":"no_flooding","validTime":"2026-07-23T19:20:00Z"},"forecast":{"primary":-999,"primaryUnit":"","secondary":-999,"secondaryUnit":"","floodCategory":"fcst_not_current","validTime":"0001-01-01T00:00:00Z"}}},{"lid":"JZHT2","name":"Hillebrandt Bayou at Highway 124","latitude":30.035833,"longitude":-94.14889,"status":{"observed":{"primary":1.29,"primaryUnit":"ft","secondary":-999,"secondaryUnit":"kcfs","floodCategory":"no_flooding","validTime":"2026-07-23T20:05:00Z"},"forecast":{"primary":-999,"primaryUnit":"","secondary":-999,"secondaryUnit":"","floodCategory":"fcst_not_current","validTime":"0001-01-01T00:00:00Z"}}},{"lid":"JZWT2","name":"North Fork Taylor Bayou at F.M. 1406","latitude":29.9475,"longitude":-94.4,"status":{"observed":{"primary":22.53,"primaryUnit":"ft","secondary":-999,"secondaryUnit":"kcfs","floodCategory":"no_flooding","validTime":"2026-07-23T19:25:00Z"},"forecast":{"primary":-999,"primaryUnit":"","secondary":-999,"secondaryUnit":"","floodCategory":"fcst_not_current","validTime":"0001-01-01T00:00:00Z"}}},{"lid":"JZYT2","name":"Taylor Bayou at Labelle Road","latitude":29.87444444444445,"longitude":-94.1588888888889,"status":{"observed":{"primary":1.45,"primaryUnit":"ft","secondary":-999,"secondaryUnit":"kcfs","floodCategory":"no_flooding","validTime":"2026-07-23T20:00:00Z"},"forecast":{"primary":-999,"primaryUnit":"","secondary":-999,"secondaryUnit":"","floodCategory":"fcst_not_current","validTime":"0001-01-01T00:00:00Z"}}},{"lid":"KHOT2","name":"Cypress Creek near Hockley","latitude":29.95,"longitude":-95.808055555556,"status":{"observed":{"primary":145.77,"primaryUnit":"ft","secondary":0.0073,"secondaryUnit":"kcfs","floodCategory":"no_flooding","validTime":"2026-07-23T19:45:00Z"},"forecast":{"primary":-999,"primaryUnit":"","secondary":-999,"secondaryUnit":"","floodCategory":"fcst_not_current","validTime":"0001-01-01T00:00:00Z"}}},{"lid":"KIVT2","name":"Tranquitas Creek at Kingsville","latitude":27.525833333333335,"longitude":-97.86722222222222,"status":{"observed":{"primary":1.21,"primaryUnit":"ft","secondary":-999,"secondaryUnit":"kcfs","floodCategory":"not_defined","validTime":"2026-07-23T19:30:00Z"},"forecast":{"primary":-999,"primaryUnit":"","secondary":-999,"secondaryUnit":"","floodCategory":"fcst_not_current","validTime":"0001-01-01T00:00:00Z"}}},{"lid":"KMST2","name":"Lavaca River at Komensky","latitude":29.540833333333,"longitude":-97.037777777778,"status":{"observed":{"primary":-999,"primaryUnit":"","secondary":-999,"secondaryUnit":"","floodCategory":"obs_not_current","validTime":"0001-01-01T00:00:00Z"},"forecast":{"primary":-999,"primaryUnit":"","secondary":-999,"secondaryUnit":"","floodCategory":"fcst_not_current","validTime":"0001-01-01T00:00:00Z"}}},{"lid":"KOUT2","name":"Village Creek near Kountze","latitude":30.397777777778,"longitude":-94.263333333333,"status":{"observed":{"primary":4.45,"primaryUnit":"ft","secondary":0.325,"secondaryUnit":"kcfs","floodCategory":"no_flooding","validTime":"2026-07-23T19:30:00Z"},"forecast":{"primary":4.6,"primaryUnit":"ft","secondary":0.348,"secondaryUnit":"kcfs","floodCategory":"no_flooding","validTime":"2026-07-24T18:00:00Z"}}},{"lid":"KYET2","name":"Blanco River near Kyle","latitude":29.979166666667,"longitude":-97.909722222222,"status":{"observed":{"primary":3.61,"primaryUnit":"ft","secondary":0.0011,"secondaryUnit":"kcfs","floodCategory":"not_defined","validTime":"2026-07-23T20:00:00Z"},"forecast":{"primary":-999,"primaryUnit":"","secondary":-999,"secondaryUnit":"","floodCategory":"fcst_not_current","validTime":"0001-01-01T00:00:00Z"}}},{"lid":"LBUT2","name":"Linnville Bayou at FM 521 near Cedar Lane","latitude":28.95151389,"longitude":-95.71122778,"status":{"observed":{"primary":1.75,"primaryUnit":"ft","secondary":-999,"secondaryUnit":"kcfs","floodCategory":"no_flooding","validTime":"2026-07-23T19:45:00Z"},"forecast":{"primary":-999,"primaryUnit":"","secondary":-999,"secondaryUnit":"","floodCategory":"fcst_not_current","validTime":"0001-01-01T00:00:00Z"}}},{"lid":"LBYT2","name":"Trinity River at Liberty","latitude":30.0575,"longitude":-94.8180555555556,"status":{"observed":{"primary":8.23,"primaryUnit":"ft","secondary":3.15,"secondaryUnit":"kcfs","floodCategory":"no_flooding","validTime":"2026-07-23T19:15:00Z"},"forecast":{"primary":8.2,"primaryUnit":"ft","secondary":3.12,"secondaryUnit":"kcfs","floodCategory":"no_flooding","validTime":"2026-07-24T00:00:00Z"}}},{"lid":"LCKT2","name":"Lost Creek at Lost Creek Blvd","latitude":30.273888888889,"longitude":-97.844444444444,"status":{"observed":{"primary":2.01,"primaryUnit":"ft","secondary":0.0083,"secondaryUnit":"kcfs","floodCategory":"not_defined","validTime":"2026-07-23T20:00:00Z"},"forecast":{"primary":-999,"primaryUnit":"","secondary":-999,"secondaryUnit":"","floodCategory":"fcst_not_current","validTime":"0001-01-01T00:00:00Z"}}},{"lid":"LCPT2","name":"Plum Creek at Lockhart","latitude":29.922777777778,"longitude":-97.678888888889,"status":{"observed":{"primary":2.73,"primaryUnit":"ft","secondary":0.0452,"secondaryUnit":"kcfs","floodCategory":"no_flooding","validTime":"2026-07-23T20:00:00Z"},"forecast":{"primary":-999,"primaryUnit":"","secondary":-999,"secondaryUnit":"","floodCategory":"fcst_not_current","validTime":"0001-01-01T00:00:00Z"}}},{"lid":"LCTT2","name":"West Fork San Jacinto River at Lake Conroe","latitude":30.358333333333,"longitude":-95.560833333333,"status":{"observed":{"primary":200.98,"primaryUnit":"ft","secondary":31,"secondaryUnit":"kcfs","floodCategory":"no_flooding","validTime":"2026-07-23T20:00:00Z"},"forecast":{"primary":-999,"primaryUnit":"","secondary":-999,"secondaryUnit":"","floodCategory":"fcst_not_current","validTime":"0001-01-01T00:00:00Z"}}},{"lid":"LEAT2","name":"Mill Creek (E TX) at Brownlea Road","latitude":30.407156739,"longitude":-94.188331908,"status":{"observed":{"primary":0.02,"primaryUnit":"ft","secondary":-999,"secondaryUnit":"kcfs","floodCategory":"no_flooding","validTime":"2026-07-23T19:55:00Z"},"forecast":{"primary":-999,"primaryUnit":"","secondary":-999,"secondaryUnit":"","floodCategory":"fcst_not_current","validTime":"0001-01-01T00:00:00Z"}}},{"lid":"LEBT2","name":"Little Bernard Creek at I-10 near Sealy","latitude":29.761675,"longitude":-96.205325,"status":{"observed":{"primary":180.67,"primaryUnit":"ft","secondary":-999,"secondaryUnit":"kcfs","floodCategory":"no_flooding","validTime":"2026-07-23T19:45:00Z"},"forecast":{"primary":-999,"primaryUnit":"","secondary":-999,"secondaryUnit":"","floodCategory":"fcst_not_current","validTime":"0001-01-01T00:00:00Z"}}},{"lid":"LGRT2","name":"Colorado River (TX) above La Grange","latitude":29.912428,"longitude":-96.896993,"status":{"observed":{"primary":14.08,"primaryUnit":"ft","secondary":12.1,"secondaryUnit":"kcfs","floodCategory":"no_flooding","validTime":"2026-07-23T19:25:00Z"},"forecast":{"primary":13.8,"primaryUnit":"ft","secondary":11.7,"secondaryUnit":"kcfs","floodCategory":"no_flooding","validTime":"2026-07-23T21:00:00Z"}}},{"lid":"LHGT2","name":"South Fork San Gabriel River at SH 1869 near Liberty Hill","latitude":30.66,"longitude":-97.9378,"status":{"observed":{"primary":4.38,"primaryUnit":"ft","secondary":-999,"secondaryUnit":"kcfs","floodCategory":"not_defined","validTime":"2026-07-23T19:50:00Z"},"forecast":{"primary":-999,"primaryUnit":"","secondary":-999,"secondaryUnit":"","floodCategory":"fcst_not_current","validTime":"0001-01-01T00:00:00Z"}}},{"lid":"LIVT2","name":"Long King Creek at Livingston","latitude":30.716111111111,"longitude":-94.958611111111,"status":{"observed":{"primary":2.72,"primaryUnit":"ft","secondary":0.0085,"secondaryUnit":"kcfs","floodCategory":"no_flooding","validTime":"2026-07-23T19:30:00Z"},"forecast":{"primary":-999,"primaryUnit":"","secondary":-999,"secondaryUnit":"","floodCategory":"fcst_not_current","validTime":"0001-01-01T00:00:00Z"}}},{"lid":"LKPT2","name":"Lake Creek at Lake Creek Parkway near Cedar Park 5SE","latitude":30.465555555556,"longitude":-97.787777777778,"status":{"observed":{"primary":2.41,"primaryUnit":"ft","secondary":0.0016,"secondaryUnit":"kcfs","floodCategory":"not_defined","validTime":"2026-07-23T19:50:00Z"},"forecast":{"primary":-999,"primaryUnit":"","secondary":-999,"secondaryUnit":"","floodCategory":"fcst_not_current","validTime":"0001-01-01T00:00:00Z"}}},{"lid":"LLGT2","name":"San Marcos River at Luling","latitude":29.666111111111,"longitude":-97.650555555556,"status":{"observed":{"primary":4.21,"primaryUnit":"ft","secondary":0.163,"secondaryUnit":"kcfs","floodCategory":"no_flooding","validTime":"2026-07-23T19:45:00Z"},"forecast":{"primary":-999,"primaryUnit":"","secondary":-999,"secondaryUnit":"","floodCategory":"fcst_not_current","validTime":"0001-01-01T00:00:00Z"}}},{"lid":"LLYT2","name":"Langham Creek near Addicks","latitude":29.866944444444,"longitude":-95.646388888889,"status":{"observed":{"primary":96.33,"primaryUnit":"ft","secondary":0.0026,"secondaryUnit":"kcfs","floodCategory":"no_flooding","validTime":"2026-07-23T19:30:00Z"},"forecast":{"primary":-999,"primaryUnit":"","secondary":-999,"secondaryUnit":"","floodCategory":"fcst_not_current","validTime":"0001-01-01T00:00:00Z"}}},{"lid":"LMCT2","name":"East Mustang Creek near Louise","latitude":29.070555555556,"longitude":-96.416944444444,"status":{"observed":{"primary":3.83,"primaryUnit":"ft","secondary":0.0053,"secondaryUnit":"kcfs","floodCategory":"no_flooding","validTime":"2026-07-23T19:30:00Z"},"forecast":{"primary":-999,"primaryUnit":"","secondary":-999,"secondaryUnit":"","floodCategory":"fcst_not_current","validTime":"0001-01-01T00:00:00Z"}}},{"lid":"LQAT2","name":"Tide Gauge above La Quinta Channel","latitude":27.88,"longitude":-97.28667,"status":{"observed":{"primary":0.55,"primaryUnit":"ft","secondary":-999,"secondaryUnit":"kcfs","floodCategory":"not_defined","validTime":"2026-07-23T19:54:00Z"},"forecast":{"primary":0.79,"primaryUnit":"ft","secondary":-999,"secondaryUnit":"kcfs","floodCategory":"fcst_not_current","validTime":"2026-07-26T17:00:00Z"}}},{"lid":"LRIT2","name":"Little River near Little River","latitude":30.966388888889,"longitude":-97.345833333333,"status":{"observed":{"primary":2.92,"primaryUnit":"ft","secondary":0.355,"secondaryUnit":"kcfs","floodCategory":"no_flooding","validTime":"2026-07-23T19:15:00Z"},"forecast":{"primary":-999,"primaryUnit":"","secondary":-999,"secondaryUnit":"","floodCategory":"fcst_not_current","validTime":"0001-01-01T00:00:00Z"}}},{"lid":"LRST2","name":"Larrison Creek at FM 1428 near Midway","latitude":30.9496,"longitude":-95.7164,"status":{"observed":{"primary":157.13,"primaryUnit":"ft","secondary":-999,"secondaryUnit":"kcfs","floodCategory":"no_flooding","validTime":"2026-07-23T19:45:00Z"},"forecast":{"primary":-999,"primaryUnit":"","secondary":-999,"secondaryUnit":"","floodCategory":"fcst_not_current","validTime":"0001-01-01T00:00:00Z"}}},{"lid":"LSNT2","name":"Navidad River at Strane Park","latitude":29.065555555556,"longitude":-96.674444444444,"status":{"observed":{"primary":5.54,"primaryUnit":"ft","secondary":0.0037,"secondaryUnit":"kcfs","floodCategory":"no_flooding","validTime":"2026-07-23T19:15:00Z"},"forecast":{"primary":-999,"primaryUnit":"","secondary":-999,"secondaryUnit":"","floodCategory":"fcst_not_current","validTime":"0001-01-01T00:00:00Z"}}},{"lid":"LTXT2","name":"Navidad River at Lake Texana","latitude":28.89193124,"longitude":-96.5777528,"status":{"observed":{"primary":44.06,"primaryUnit":"ft","secondary":48.1,"secondaryUnit":"kcfs","floodCategory":"not_defined","validTime":"2026-07-23T19:00:00Z"},"forecast":{"primary":-999,"primaryUnit":"","secondary":-999,"secondaryUnit":"","floodCategory":"fcst_not_current","validTime":"0001-01-01T00:00:00Z"}}},{"lid":"LUIT2","name":"Tide Station (HGX) at San Luis Pass","latitude":29.095,"longitude":-95.1133,"status":{"observed":{"primary":1.17,"primaryUnit":"ft","secondary":-999,"secondaryUnit":"kcfs","floodCategory":"no_flooding","validTime":"2026-07-23T19:54:00Z"},"forecast":{"primary":1.22,"primaryUnit":"ft","secondary":-999,"secondaryUnit":"kcfs","floodCategory":"fcst_not_current","validTime":"2026-07-25T10:00:00Z"}}},{"lid":"LULT2","name":"Plum Creek near Luling","latitude":29.6996,"longitude":-97.6036,"status":{"observed":{"primary":5.22,"primaryUnit":"ft","secondary":0.0571,"secondaryUnit":"kcfs","floodCategory":"no_flooding","validTime":"2026-07-23T20:00:00Z"},"forecast":{"primary":-999,"primaryUnit":"","secondary":-999,"secondaryUnit":"","floodCategory":"fcst_not_current","validTime":"0001-01-01T00:00:00Z"}}},{"lid":"LVDT2","name":"Trinity River at Lake Livingston","latitude":30.633333333333,"longitude":-95.01,"status":{"observed":{"primary":131.09,"primaryUnit":"ft","secondary":30.5,"secondaryUnit":"kcfs","floodCategory":"not_defined","validTime":"2026-07-23T20:00:00Z"},"forecast":{"primary":-999,"primaryUnit":"","secondary":-999,"secondaryUnit":"","floodCategory":"fcst_not_current","validTime":"0001-01-01T00:00:00Z"}}},{"lid":"LWCT2","name":"Willow Creek near Tomball","latitude":30.105277777778,"longitude":-95.546388888889,"status":{"observed":{"primary":111.73,"primaryUnit":"ft","secondary":0.0219,"secondaryUnit":"kcfs","floodCategory":"no_flooding","validTime":"2026-07-23T19:45:00Z"},"forecast":{"primary":-999,"primaryUnit":"","secondary":-999,"secondaryUnit":"","floodCategory":"fcst_not_current","validTime":"0001-01-01T00:00:00Z"}}},{"lid":"LWGT2","name":"Little Walnut Creek (TX) at Georgian Drive near Austin 7N","latitude":30.354166666667,"longitude":-97.697777777778,"status":{"observed":{"primary":0.41,"primaryUnit":"ft","secondary":0.0018,"secondaryUnit":"kcfs","floodCategory":"not_defined","validTime":"2026-07-23T20:00:00Z"},"forecast":{"primary":-999,"primaryUnit":"","secondary":-999,"secondaryUnit":"","floodCategory":"fcst_not_current","validTime":"0001-01-01T00:00:00Z"}}},{"lid":"LYNT2","name":"Davidson Creek near Lyons","latitude":30.4196519612315,"longitude":-96.5402466078278,"status":{"observed":{"primary":2.59,"primaryUnit":"ft","secondary":0.0058,"secondaryUnit":"kcfs","floodCategory":"no_flooding","validTime":"2026-07-23T19:00:00Z"},"forecast":{"primary":-999,"primaryUnit":"","secondary":-999,"secondaryUnit":"","floodCategory":"fcst_not_current","validTime":"0001-01-01T00:00:00Z"}}},{"lid":"MBET2","name":"Tide Station (HGX) at Matagorda Bay Entrance Channel","latitude":28.4217,"longitude":-96.3267,"status":{"observed":{"primary":-999,"primaryUnit":"","secondary":-999,"secondaryUnit":"","floodCategory":"obs_not_current","validTime":"0001-01-01T00:00:00Z"},"forecast":{"primary":-999,"primaryUnit":"","secondary":-999,"secondaryUnit":"","floodCategory":"fcst_not_current","validTime":"0001-01-01T00:00:00Z"}}},{"lid":"MBFT2","name":"Trinity River near Moss Bluff","latitude":29.9418847,"longitude":-94.774366,"status":{"observed":{"primary":1.56,"primaryUnit":"ft","secondary":1.71,"secondaryUnit":"kcfs","floodCategory":"no_flooding","validTime":"2026-07-23T19:30:00Z"},"forecast":{"primary":0.4,"primaryUnit":"ft","secondary":1.3,"secondaryUnit":"kcfs","floodCategory":"no_flooding","validTime":"2026-07-27T06:00:00Z"}}},{"lid":"MBVT2","name":"Cedar Bayou at I-10 near Mont Belvieu","latitude":29.82151389,"longitude":-94.90970556,"status":{"observed":{"primary":1.7,"primaryUnit":"ft","secondary":-999,"secondaryUnit":"kcfs","floodCategory":"no_flooding","validTime":"2026-07-23T19:00:00Z"},"forecast":{"primary":-999,"primaryUnit":"","secondary":-999,"secondaryUnit":"","floodCategory":"fcst_not_current","validTime":"0001-01-01T00:00:00Z"}}},{"lid":"MCVT2","name":"Cow Bayou near Mauriceville","latitude":30.186388888889,"longitude":-93.908333333333,"status":{"observed":{"primary":5.2,"primaryUnit":"ft","secondary":0.014,"secondaryUnit":"kcfs","floodCategory":"no_flooding","validTime":"2026-07-23T19:00:00Z"},"forecast":{"primary":-999,"primaryUnit":"","secondary":-999,"secondaryUnit":"","floodCategory":"fcst_not_current","validTime":"0001-01-01T00:00:00Z"}}},{"lid":"MDST2","name":"Bedias Creek near Madisonville","latitude":30.8841666666667,"longitude":-95.7775,"status":{"observed":{"primary":1.92,"primaryUnit":"ft","secondary":0.0047,"secondaryUnit":"kcfs","floodCategory":"no_flooding","validTime":"2026-07-23T19:45:00Z"},"forecast":{"primary":-999,"primaryUnit":"","secondary":-999,"secondaryUnit":"","floodCategory":"fcst_not_current","validTime":"0001-01-01T00:00:00Z"}}},{"lid":"MFNT2","name":"San Antonio River near McFaddin","latitude":28.531111111111,"longitude":-97.042777777778,"status":{"observed":{"primary":23.34,"primaryUnit":"ft","secondary":2.8,"secondaryUnit":"kcfs","floodCategory":"not_defined","validTime":"2026-07-23T19:15:00Z"},"forecast":{"primary":-999,"primaryUnit":"","secondary":-999,"secondaryUnit":"","floodCategory":"fcst_not_current","validTime":"0001-01-01T00:00:00Z"}}},{"lid":"MGPT2","name":"Tide Station (HGX) at Morgan's Point","latitude":29.6817,"longitude":-94.985,"status":{"observed":{"primary":1.53,"primaryUnit":"ft","secondary":-999,"secondaryUnit":"kcfs","floodCategory":"no_flooding","validTime":"2026-07-23T19:54:00Z"},"forecast":{"primary":1.48,"primaryUnit":"ft","secondary":-999,"secondaryUnit":"kcfs","floodCategory":"fcst_not_current","validTime":"2026-07-26T16:00:00Z"}}},{"lid":"MHBT2","name":"Tide Gauge at Enbridge Ingleside","latitude":27.81861,"longitude":-97.20894,"status":{"observed":{"primary":0.36,"primaryUnit":"ft","secondary":-999,"secondaryUnit":"kcfs","floodCategory":"not_defined","validTime":"2026-07-23T19:54:00Z"},"forecast":{"primary":-999,"primaryUnit":"","secondary":-999,"secondaryUnit":"","floodCategory":"fcst_not_current","validTime":"0001-01-01T00:00:00Z"}}},{"lid":"MIOT2","name":"Medio Creek near Beeville","latitude":28.482777777778,"longitude":-97.656388888889,"status":{"observed":{"primary":3.91,"primaryUnit":"ft","secondary":-999,"secondaryUnit":"kcfs","floodCategory":"not_defined","validTime":"2026-07-23T19:15:00Z"},"forecast":{"primary":-999,"primaryUnit":"","secondary":-999,"secondaryUnit":"","floodCategory":"fcst_not_current","validTime":"0001-01-01T00:00:00Z"}}},{"lid":"MKTT2","name":"Mathis Creek at US 190 near Kurten","latitude":30.75761111,"longitude":-96.297475,"status":{"observed":{"primary":276.1,"primaryUnit":"ft","secondary":-999,"secondaryUnit":"kcfs","floodCategory":"no_flooding","validTime":"2026-07-23T19:45:00Z"},"forecast":{"primary":-999,"primaryUnit":"","secondary":-999,"secondaryUnit":"","floodCategory":"fcst_not_current","validTime":"0001-01-01T00:00:00Z"}}},{"lid":"MQTT2","name":"Tide Gauge at Bob Hall Pier","latitude":27.58111111111111,"longitude":-97.21666666666667,"status":{"observed":{"primary":-999,"primaryUnit":"","secondary":-999,"secondaryUnit":"","floodCategory":"obs_not_current","validTime":"0001-01-01T00:00:00Z"},"forecast":{"primary":-999,"primaryUnit":"","secondary":-999,"secondaryUnit":"","floodCategory":"fcst_not_current","validTime":"0001-01-01T00:00:00Z"}}},{"lid":"MRAT2","name":"Navidad River near Morales","latitude":29.135277777778,"longitude":-96.744166666667,"status":{"observed":{"primary":6.76,"primaryUnit":"ft","secondary":-999,"secondaryUnit":"kcfs","floodCategory":"no_flooding","validTime":"2026-07-23T20:00:00Z"},"forecast":{"primary":-999,"primaryUnit":"","secondary":-999,"secondaryUnit":"","floodCategory":"fcst_not_current","validTime":"0001-01-01T00:00:00Z"}}},{"lid":"MRCT2","name":"Colorado River (TX) at Matagorda","latitude":28.699166666667,"longitude":-95.975,"status":{"observed":{"primary":1.76,"primaryUnit":"ft","secondary":1.17,"secondaryUnit":"kcfs","floodCategory":"no_flooding","validTime":"2026-07-23T20:00:00Z"},"forecast":{"primary":3.7,"primaryUnit":"ft","secondary":9.79,"secondaryUnit":"kcfs","floodCategory":"no_flooding","validTime":"2026-07-24T14:00:00Z"}}},{"lid":"MSDT2","name":"Colorado River (TX) at Lake Travis","latitude":30.3915902,"longitude":-97.9069554,"status":{"observed":{"primary":682.51,"primaryUnit":"ft","secondary":52.5,"secondaryUnit":"kcfs","floodCategory":"action","validTime":"2026-07-23T20:00:00Z"},"forecast":{"primary":-999,"primaryUnit":"","secondary":-999,"secondaryUnit":"","floodCategory":"fcst_not_current","validTime":"0001-01-01T00:00:00Z"}}},{"lid":"MTBT2","name":"Nueces River at Mathis","latitude":28.038055555556,"longitude":-97.86,"status":{"observed":{"primary":1.08,"primaryUnit":"ft","secondary":0.108,"secondaryUnit":"kcfs","floodCategory":"no_flooding","validTime":"2026-07-23T20:00:00Z"},"forecast":{"primary":-999,"primaryUnit":"","secondary":-999,"secondaryUnit":"","floodCategory":"fcst_not_current","validTime":"0001-01-01T00:00:00Z"}}},{"lid":"MTHT2","name":"Nueces River at Lake Corpus Christi","latitude":28.038055555556,"longitude":-97.870833333333,"status":{"observed":{"primary":83.03,"primaryUnit":"ft","secondary":23,"secondaryUnit":"kcfs","floodCategory":"not_defined","validTime":"2026-07-23T19:00:00Z"},"forecast":{"primary":-999,"primaryUnit":"","secondary":-999,"secondaryUnit":"","floodCategory":"fcst_not_current","validTime":"0001-01-01T00:00:00Z"}}},{"lid":"MTPT2","name":"Tres Palacios River near Midfield","latitude":28.92777777777778,"longitude":-96.17083333333332,"status":{"observed":{"primary":3.93,"primaryUnit":"ft","secondary":0.0485,"secondaryUnit":"kcfs","floodCategory":"no_flooding","validTime":"2026-07-23T19:30:00Z"},"forecast":{"primary":-999,"primaryUnit":"","secondary":-999,"secondaryUnit":"","floodCategory":"fcst_not_current","validTime":"0001-01-01T00:00:00Z"}}},{"lid":"MUGT2","name":"Mustang Bayou at SH 6 near Alvin","latitude":29.43651111,"longitude":-95.26628889,"status":{"observed":{"primary":32.01,"primaryUnit":"ft","secondary":-999,"secondaryUnit":"kcfs","floodCategory":"no_flooding","validTime":"2026-07-23T19:45:00Z"},"forecast":{"primary":-999,"primaryUnit":"","secondary":-999,"secondaryUnit":"","floodCategory":"fcst_not_current","validTime":"0001-01-01T00:00:00Z"}}},{"lid":"NAVT2","name":"Navasota River at SH 6 near Navasota","latitude":30.41840278,"longitude":-96.10661667,"status":{"observed":{"primary":152.12,"primaryUnit":"ft","secondary":-999,"secondaryUnit":"kcfs","floodCategory":"no_flooding","validTime":"2026-07-23T19:45:00Z"},"forecast":{"primary":-999,"primaryUnit":"","secondary":-999,"secondaryUnit":"","floodCategory":"fcst_not_current","validTime":"0001-01-01T00:00:00Z"}}},{"lid":"NCCT2","name":"Big Cow Creek near Newton","latitude":30.818888888889,"longitude":-93.785555555556,"status":{"observed":{"primary":6.24,"primaryUnit":"ft","secondary":0.0446,"secondaryUnit":"kcfs","floodCategory":"no_flooding","validTime":"2026-07-23T19:30:00Z"},"forecast":{"primary":-999,"primaryUnit":"","secondary":-999,"secondaryUnit":"","floodCategory":"fcst_not_current","validTime":"0001-01-01T00:00:00Z"}}},{"lid":"NCET2","name":"East Fork San Jacinto River near New Caney","latitude":30.145277777778,"longitude":-95.124166666667,"status":{"observed":{"primary":46.84,"primaryUnit":"ft","secondary":0.0779,"secondaryUnit":"kcfs","floodCategory":"no_flooding","validTime":"2026-07-23T20:00:00Z"},"forecast":{"primary":-999,"primaryUnit":"","secondary":-999,"secondaryUnit":"","floodCategory":"fcst_not_current","validTime":"0001-01-01T00:00:00Z"}}},{"lid":"NCHT2","name":"Tide Station (HGX) at Manchester","latitude":29.7262,"longitude":-95.2658,"status":{"observed":{"primary":1.69,"primaryUnit":"ft","secondary":-999,"secondaryUnit":"kcfs","floodCategory":"no_flooding","validTime":"2026-07-23T19:54:00Z"},"forecast":{"primary":1.68,"primaryUnit":"ft","secondary":-999,"secondaryUnit":"kcfs","floodCategory":"fcst_not_current","validTime":"2026-07-26T16:00:00Z"}}},{"lid":"NEST2","name":"Nelson Creek at FM 247 near Huntsville","latitude":30.82226111,"longitude":-95.59463056,"status":{"observed":{"primary":182.13,"primaryUnit":"ft","secondary":-999,"secondaryUnit":"kcfs","floodCategory":"no_flooding","validTime":"2026-07-23T19:45:00Z"},"forecast":{"primary":-999,"primaryUnit":"","secondary":-999,"secondaryUnit":"","floodCategory":"fcst_not_current","validTime":"0001-01-01T00:00:00Z"}}},{"lid":"NFBT2","name":"North Fork San Gabriel River at 243 near Briggs, TX","latitude":30.8139,"longitude":-97.9658,"status":{"observed":{"primary":5.62,"primaryUnit":"ft","secondary":-999,"secondaryUnit":"kcfs","floodCategory":"not_defined","validTime":"2026-07-23T20:00:00Z"},"forecast":{"primary":-999,"primaryUnit":"","secondary":-999,"secondaryUnit":"","floodCategory":"fcst_not_current","validTime":"0001-01-01T00:00:00Z"}}},{"lid":"NGCT2","name":"Garcitas Creek near Inez","latitude":28.891111111111,"longitude":-96.818888888889,"status":{"observed":{"primary":5.34,"primaryUnit":"ft","secondary":0.0014,"secondaryUnit":"kcfs","floodCategory":"no_flooding","validTime":"2026-07-23T19:15:00Z"},"forecast":{"primary":-999,"primaryUnit":"","secondary":-999,"secondaryUnit":"","floodCategory":"fcst_not_current","validTime":"0001-01-01T00:00:00Z"}}},{"lid":"NGET2","name":"Navasota River near Normangee","latitude":30.973611111111,"longitude":-96.241388888889,"status":{"observed":{"primary":1.46,"primaryUnit":"ft","secondary":0.0314,"secondaryUnit":"kcfs","floodCategory":"no_flooding","validTime":"2026-07-23T20:00:00Z"},"forecast":{"primary":-999,"primaryUnit":"","secondary":-999,"secondaryUnit":"","floodCategory":"fcst_not_current","validTime":"0001-01-01T00:00:00Z"}}},{"lid":"NSBT2","name":"Neches River at Saltwater Barrier","latitude":30.156666666667,"longitude":-94.114166666667,"status":{"observed":{"primary":2.99,"primaryUnit":"ft","secondary":18.3,"secondaryUnit":"kcfs","floodCategory":"no_flooding","validTime":"2026-07-23T19:15:00Z"},"forecast":{"primary":-999,"primaryUnit":"","secondary":-999,"secondaryUnit":"","floodCategory":"fcst_not_current","validTime":"0001-01-01T00:00:00Z"}}},{"lid":"NTCT2","name":"Big Cow Creek at FM1416","latitude":30.605,"longitude":-93.7944,"status":{"observed":{"primary":41.82,"primaryUnit":"ft","secondary":0.106,"secondaryUnit":"kcfs","floodCategory":"no_flooding","validTime":"2026-07-23T19:15:00Z"},"forecast":{"primary":-999,"primaryUnit":"","secondary":-999,"secondaryUnit":"","floodCategory":"fcst_not_current","validTime":"0001-01-01T00:00:00Z"}}},{"lid":"NUET2","name":"Tide Gauge at Nueces Bay","latitude":27.833,"longitude":-97.486,"status":{"observed":{"primary":-999,"primaryUnit":"","secondary":-999,"secondaryUnit":"","floodCategory":"obs_not_current","validTime":"0001-01-01T00:00:00Z"},"forecast":{"primary":-999,"primaryUnit":"","secondary":-999,"secondaryUnit":"","floodCategory":"fcst_not_current","validTime":"0001-01-01T00:00:00Z"}}},{"lid":"NYBT2","name":"New Year Creek at TX 105 near Brenham","latitude":30.19580278,"longitude":-96.36540278,"status":{"observed":{"primary":203,"primaryUnit":"ft","secondary":-999,"secondaryUnit":"kcfs","floodCategory":"no_flooding","validTime":"2026-07-23T19:55:00Z"},"forecast":{"primary":-999,"primaryUnit":"","secondary":-999,"secondaryUnit":"","floodCategory":"fcst_not_current","validTime":"0001-01-01T00:00:00Z"}}},{"lid":"OABT2","name":"Adams Bayou at FM 3247","latitude":30.1319,"longitude":-93.7866,"status":{"observed":{"primary":1.05,"primaryUnit":"ft","secondary":-999,"secondaryUnit":"kcfs","floodCategory":"no_flooding","validTime":"2026-07-23T19:45:00Z"},"forecast":{"primary":-999,"primaryUnit":"","secondary":-999,"secondaryUnit":"","floodCategory":"fcst_not_current","validTime":"0001-01-01T00:00:00Z"}}},{"lid":"OCNT2","name":"San Bernard River near Old Ocean","latitude":29.1119,"longitude":-95.6766,"status":{"observed":{"primary":1.41,"primaryUnit":"ft","secondary":1.42,"secondaryUnit":"kcfs","floodCategory":"no_flooding","validTime":"2026-07-23T19:45:00Z"},"forecast":{"primary":-999,"primaryUnit":"","secondary":-999,"secondaryUnit":"","floodCategory":"fcst_not_current","validTime":"0001-01-01T00:00:00Z"}}},{"lid":"OCOT2","name":"Coon Bayou at Lane of the Oaks","latitude":30.072812667,"longitude":-93.817363849,"status":{"observed":{"primary":0.78,"primaryUnit":"ft","secondary":-999,"secondaryUnit":"kcfs","floodCategory":"out_of_service","validTime":"2026-07-23T20:00:00Z"},"forecast":{"primary":-999,"primaryUnit":"","secondary":-999,"secondaryUnit":"","floodCategory":"out_of_service","validTime":"0001-01-01T00:00:00Z"}}},{"lid":"ODCT2","name":"Terry Gully at FM 1442","latitude":30.1025,"longitude":-93.9035,"status":{"observed":{"primary":2.69,"primaryUnit":"ft","secondary":-999,"secondaryUnit":"kcfs","floodCategory":"no_flooding","validTime":"2026-07-23T20:00:00Z"},"forecast":{"primary":-999,"primaryUnit":"","secondary":-999,"secondaryUnit":"","floodCategory":"fcst_not_current","validTime":"0001-01-01T00:00:00Z"}}},{"lid":"OHBT2","name":"Barton Creek above Hwy 71 near Oak Hill","latitude":30.296111111111,"longitude":-97.925277777778,"status":{"observed":{"primary":2.36,"primaryUnit":"ft","secondary":0.0061,"secondaryUnit":"kcfs","floodCategory":"no_flooding","validTime":"2026-07-23T19:20:00Z"},"forecast":{"primary":-999,"primaryUnit":"","secondary":-999,"secondaryUnit":"","floodCategory":"fcst_not_current","validTime":"0001-01-01T00:00:00Z"}}},{"lid":"ONIT2","name":"Onion Creek at Twin Creeks near Manchaca","latitude":30.126111111111,"longitude":-97.820833333333,"status":{"observed":{"primary":3.92,"primaryUnit":"ft","secondary":0.0042,"secondaryUnit":"kcfs","floodCategory":"not_defined","validTime":"2026-07-23T20:00:00Z"},"forecast":{"primary":-999,"primaryUnit":"","secondary":-999,"secondaryUnit":"","floodCategory":"fcst_not_current","validTime":"0001-01-01T00:00:00Z"}}},{"lid":"OOST2","name":"Oso Creek near Corpus Christi","latitude":27.7114,"longitude":-97.5019,"status":{"observed":{"primary":5.78,"primaryUnit":"ft","secondary":0.0006,"secondaryUnit":"kcfs","floodCategory":"no_flooding","validTime":"2026-07-23T19:15:00Z"},"forecast":{"primary":-999,"primaryUnit":"","secondary":-999,"secondaryUnit":"","floodCategory":"fcst_not_current","validTime":"0001-01-01T00:00:00Z"}}},{"lid":"ORBT2","name":"West Bouldin Creek above Oltorf Road at Austin","latitude":30.246666666667,"longitude":-97.769166666667,"status":{"observed":{"primary":1.53,"primaryUnit":"ft","secondary":-999,"secondaryUnit":"kcfs","floodCategory":"not_defined","validTime":"2026-07-23T19:50:00Z"},"forecast":{"primary":-999,"primaryUnit":"","secondary":-999,"secondaryUnit":"","floodCategory":"fcst_not_current","validTime":"0001-01-01T00:00:00Z"}}},{"lid":"ORFT2","name":"Cow Bayou at FM 1442","latitude":30.1079,"longitude":-93.8963,"status":{"observed":{"primary":0.94,"primaryUnit":"ft","secondary":-999,"secondaryUnit":"kcfs","floodCategory":"no_flooding","validTime":"2026-07-23T20:00:00Z"},"forecast":{"primary":-999,"primaryUnit":"","secondary":-999,"secondaryUnit":"","floodCategory":"fcst_not_current","validTime":"0001-01-01T00:00:00Z"}}},{"lid":"ORNT2","name":"Sabine River at Orange","latitude":30.097222222222,"longitude":-93.721111111111,"status":{"observed":{"primary":1.14,"primaryUnit":"ft","secondary":2.35,"secondaryUnit":"kcfs","floodCategory":"no_flooding","validTime":"2026-07-23T19:15:00Z"},"forecast":{"primary":-999,"primaryUnit":"","secondary":-999,"secondaryUnit":"","floodCategory":"fcst_not_current","validTime":"0001-01-01T00:00:00Z"}}},{"lid":"PACT2","name":"Tide Gauge at Packery Channel","latitude":27.61888888888889,"longitude":-97.23388888888888,"status":{"observed":{"primary":-0.03,"primaryUnit":"ft","secondary":-999,"secondaryUnit":"kcfs","floodCategory":"no_flooding","validTime":"2026-07-23T19:54:00Z"},"forecast":{"primary":-0.18,"primaryUnit":"ft","secondary":-999,"secondaryUnit":"kcfs","floodCategory":"fcst_not_current","validTime":"2026-07-26T17:00:00Z"}}},{"lid":"PCNT2","name":"Tide Gauge at Port O'Connor","latitude":28.450277777777778,"longitude":-96.38416666666667,"status":{"observed":{"primary":-0.44,"primaryUnit":"ft","secondary":-999,"secondaryUnit":"kcfs","floodCategory":"no_flooding","validTime":"2026-07-23T19:54:00Z"},"forecast":{"primary":-0.04,"primaryUnit":"ft","secondary":-999,"secondaryUnit":"kcfs","floodCategory":"fcst_not_current","validTime":"2026-07-25T14:00:00Z"}}},{"lid":"PEDT2","name":"Perdido Creek near Fannin","latitude":28.751388888889,"longitude":-97.316944444444,"status":{"observed":{"primary":2.55,"primaryUnit":"ft","secondary":-999,"secondaryUnit":"kcfs","floodCategory":"not_defined","validTime":"2026-07-23T19:15:00Z"},"forecast":{"primary":-999,"primaryUnit":"","secondary":-999,"secondaryUnit":"","floodCategory":"fcst_not_current","validTime":"0001-01-01T00:00:00Z"}}},{"lid":"PETT2","name":"Petronila Creek at FM665 Nr Driscoll","latitude":27.6652,"longitude":-97.7022,"status":{"observed":{"primary":4.41,"primaryUnit":"ft","secondary":-999,"secondaryUnit":"kcfs","floodCategory":"not_defined","validTime":"2026-07-23T19:15:00Z"},"forecast":{"primary":-999,"primaryUnit":"","secondary":-999,"secondaryUnit":"","floodCategory":"fcst_not_current","validTime":"0001-01-01T00:00:00Z"}}},{"lid":"PEWT2","name":"Peach Creek at Hwy 90 near Waelder","latitude":29.685555555555556,"longitude":-97.23055555555555,"status":{"observed":{"primary":3.05,"primaryUnit":"ft","secondary":0,"secondaryUnit":"kcfs","floodCategory":"not_defined","validTime":"2026-07-23T19:30:00Z"},"forecast":{"primary":-999,"primaryUnit":"","secondary":-999,"secondaryUnit":"","floodCategory":"fcst_not_current","validTime":"0001-01-01T00:00:00Z"}}},{"lid":"PIKT2","name":"Pin Oak Creek at S. Elizabeth Ave. Kirbyville","latitude":30.6566,"longitude":-93.8934,"status":{"observed":{"primary":1.41,"primaryUnit":"ft","secondary":-999,"secondaryUnit":"kcfs","floodCategory":"no_flooding","validTime":"2026-07-23T20:00:00Z"},"forecast":{"primary":-999,"primaryUnit":"","secondary":-999,"secondaryUnit":"","floodCategory":"fcst_not_current","validTime":"0001-01-01T00:00:00Z"}}},{"lid":"PLPT2","name":"Placedo Creek near Placedo","latitude":28.725,"longitude":-96.768611111111,"status":{"observed":{"primary":4.21,"primaryUnit":"ft","secondary":0.0025,"secondaryUnit":"kcfs","floodCategory":"not_defined","validTime":"2026-07-23T19:30:00Z"},"forecast":{"primary":-999,"primaryUnit":"","secondary":-999,"secondaryUnit":"","floodCategory":"fcst_not_current","validTime":"0001-01-01T00:00:00Z"}}},{"lid":"PNPT2","name":"Neches River at Lee Avenue","latitude":29.9978,"longitude":-93.9529,"status":{"observed":{"primary":0.8,"primaryUnit":"ft","secondary":-999,"secondaryUnit":"kcfs","floodCategory":"no_flooding","validTime":"2026-07-23T20:00:00Z"},"forecast":{"primary":-999,"primaryUnit":"","secondary":-999,"secondaryUnit":"","floodCategory":"fcst_not_current","validTime":"0001-01-01T00:00:00Z"}}},{"lid":"POET2","name":"West Fork San Jacinto River near Porter","latitude":30.1412,"longitude":-95.3381,"status":{"observed":{"primary":57.21,"primaryUnit":"ft","secondary":0.115,"secondaryUnit":"kcfs","floodCategory":"no_flooding","validTime":"2026-07-23T19:45:00Z"},"forecast":{"primary":-999,"primaryUnit":"","secondary":-999,"secondaryUnit":"","floodCategory":"fcst_not_current","validTime":"0001-01-01T00:00:00Z"}}},{"lid":"PPTT2","name":"Buffalo Bayou at Piney Point Village","latitude":29.746666666667,"longitude":-95.523333333333,"status":{"observed":{"primary":28.31,"primaryUnit":"ft","secondary":0.146,"secondaryUnit":"kcfs","floodCategory":"no_flooding","validTime":"2026-07-23T20:00:00Z"},"forecast":{"primary":-999,"primaryUnit":"","secondary":-999,"secondaryUnit":"","floodCategory":"fcst_not_current","validTime":"0001-01-01T00:00:00Z"}}},{"lid":"PRLT2","name":"Clear Creek above Telephone Road","latitude":29.5968,"longitude":-95.2972,"status":{"observed":{"primary":31.43,"primaryUnit":"ft","secondary":0.0176,"secondaryUnit":"kcfs","floodCategory":"no_flooding","validTime":"2026-07-23T19:00:00Z"},"forecast":{"primary":-999,"primaryUnit":"","secondary":-999,"secondaryUnit":"","floodCategory":"fcst_not_current","validTime":"0001-01-01T00:00:00Z"}}},{"lid":"PWET2","name":"Little Pine Island Bayou at Pine Wood Estates","latitude":30.1623,"longitude":-94.3171,"status":{"observed":{"primary":0,"primaryUnit":"ft","secondary":-999,"secondaryUnit":"kcfs","floodCategory":"no_flooding","validTime":"2026-07-23T20:00:00Z"},"forecast":{"primary":-999,"primaryUnit":"","secondary":-999,"secondaryUnit":"","floodCategory":"fcst_not_current","validTime":"0001-01-01T00:00:00Z"}}},{"lid":"RBBT2","name":"Tide Station (LCH) at Rainbow Bridge","latitude":29.98,"longitude":-93.8817,"status":{"observed":{"primary":1.63,"primaryUnit":"ft","secondary":-999,"secondaryUnit":"kcfs","floodCategory":"no_flooding","validTime":"2026-07-23T19:54:00Z"},"forecast":{"primary":1.46,"primaryUnit":"ft","secondary":-999,"secondaryUnit":"kcfs","floodCategory":"no_flooding","validTime":"2026-07-25T14:00:00Z"}}},{"lid":"RBUT2","name":"Ricon Bayou Channel near Calallen","latitude":27.8966666666667,"longitude":-97.6252777777778,"status":{"observed":{"primary":1.16,"primaryUnit":"ft","secondary":-999,"secondaryUnit":"kcfs","floodCategory":"not_defined","validTime":"2026-07-23T19:00:00Z"},"forecast":{"primary":-999,"primaryUnit":"","secondary":-999,"secondaryUnit":"","floodCategory":"fcst_not_current","validTime":"0001-01-01T00:00:00Z"}}},{"lid":"RCCT2","name":"Copano Creek near Refugio","latitude":28.303333333333,"longitude":-97.112222222222,"status":{"observed":{"primary":4.6,"primaryUnit":"ft","secondary":0.022,"secondaryUnit":"kcfs","floodCategory":"no_flooding","validTime":"2026-07-23T19:30:00Z"},"forecast":{"primary":-999,"primaryUnit":"","secondary":-999,"secondaryUnit":"","floodCategory":"fcst_not_current","validTime":"0001-01-01T00:00:00Z"}}},{"lid":"RCPT2","name":"Tide Gauge at Rockport","latitude":28.024166666666666,"longitude":-97.04805555555555,"status":{"observed":{"primary":-0.16,"primaryUnit":"ft","secondary":-999,"secondaryUnit":"kcfs","floodCategory":"no_flooding","validTime":"2026-07-23T19:54:00Z"},"forecast":{"primary":-0.05,"primaryUnit":"ft","secondary":-999,"secondaryUnit":"kcfs","floodCategory":"fcst_not_current","validTime":"2026-07-24T15:00:00Z"}}},{"lid":"REFT2","name":"Mission River at Refugio","latitude":28.291666666667,"longitude":-97.278888888889,"status":{"observed":{"primary":1.81,"primaryUnit":"ft","secondary":0.0042,"secondaryUnit":"kcfs","floodCategory":"no_flooding","validTime":"2026-07-23T20:00:00Z"},"forecast":{"primary":-999,"primaryUnit":"","secondary":-999,"secondaryUnit":"","floodCategory":"fcst_not_current","validTime":"0001-01-01T00:00:00Z"}}},{"lid":"RGBT2","name":"Rhodair Gully at Wellspring Dr.","latitude":29.984347,"longitude":-94.0277034,"status":{"observed":{"primary":0,"primaryUnit":"ft","secondary":-999,"secondaryUnit":"kcfs","floodCategory":"no_flooding","validTime":"2026-07-23T20:00:00Z"},"forecast":{"primary":-999,"primaryUnit":"","secondary":-999,"secondaryUnit":"","floodCategory":"fcst_not_current","validTime":"0001-01-01T00:00:00Z"}}},{"lid":"RGIT2","name":"Rhodair Gully at 5th Street","latitude":29.9595,"longitude":-94.0432,"status":{"observed":{"primary":0.1,"primaryUnit":"ft","secondary":-999,"secondaryUnit":"kcfs","floodCategory":"no_flooding","validTime":"2026-07-23T19:10:00Z"},"forecast":{"primary":-999,"primaryUnit":"","secondary":-999,"secondaryUnit":"","floodCategory":"fcst_not_current","validTime":"0001-01-01T00:00:00Z"}}},{"lid":"RLOT2","name":"Tide Station (HGX) at Rollover Pass","latitude":29.515,"longitude":-94.5133,"status":{"observed":{"primary":2.31,"primaryUnit":"ft","secondary":-999,"secondaryUnit":"kcfs","floodCategory":"no_flooding","validTime":"2026-07-23T19:54:00Z"},"forecast":{"primary":1.49,"primaryUnit":"ft","secondary":-999,"secondaryUnit":"kcfs","floodCategory":"fcst_not_current","validTime":"2026-07-25T15:00:00Z"}}},{"lid":"RLRT2","name":"Little River near Rockdale","latitude":30.760555555556,"longitude":-97.013611111111,"status":{"observed":{"primary":6.12,"primaryUnit":"ft","secondary":0.875,"secondaryUnit":"kcfs","floodCategory":"no_flooding","validTime":"2026-07-23T19:15:00Z"},"forecast":{"primary":-999,"primaryUnit":"","secondary":-999,"secondaryUnit":"","floodCategory":"fcst_not_current","validTime":"0001-01-01T00:00:00Z"}}},{"lid":"RMOT2","name":"Brazos River at Richmond","latitude":29.582222222222,"longitude":-95.7575,"status":{"observed":{"primary":13.2,"primaryUnit":"ft","secondary":4.17,"secondaryUnit":"kcfs","floodCategory":"no_flooding","validTime":"2026-07-23T19:15:00Z"},"forecast":{"primary":13.2,"primaryUnit":"ft","secondary":4.17,"secondaryUnit":"kcfs","floodCategory":"no_flooding","validTime":"2026-07-23T21:00:00Z"}}},{"lid":"RMYT2","name":"Trinity River near Romayor","latitude":30.425,"longitude":-94.8505555555556,"status":{"observed":{"primary":11.01,"primaryUnit":"ft","secondary":2.22,"secondaryUnit":"kcfs","floodCategory":"no_flooding","validTime":"2026-07-23T19:30:00Z"},"forecast":{"primary":11.1,"primaryUnit":"ft","secondary":2.32,"secondaryUnit":"kcfs","floodCategory":"no_flooding","validTime":"2026-07-24T00:00:00Z"}}},{"lid":"ROST2","name":"Brazos River near Rosharon","latitude":29.349444444444,"longitude":-95.582222222222,"status":{"observed":{"primary":10.6,"primaryUnit":"ft","secondary":4.76,"secondaryUnit":"kcfs","floodCategory":"no_flooding","validTime":"2026-07-23T20:00:00Z"},"forecast":{"primary":10.7,"primaryUnit":"ft","secondary":4.85,"secondaryUnit":"kcfs","floodCategory":"no_flooding","validTime":"2026-07-23T21:00:00Z"}}},{"lid":"RTAT2","name":"Tide Gauge at Port Aransas","latitude":27.83972222222222,"longitude":-97.0725,"status":{"observed":{"primary":-0.84,"primaryUnit":"ft","secondary":-999,"secondaryUnit":"kcfs","floodCategory":"no_flooding","validTime":"2026-07-23T19:54:00Z"},"forecast":{"primary":-0.08,"primaryUnit":"ft","secondary":-999,"secondaryUnit":"kcfs","floodCategory":"fcst_not_current","validTime":"2026-07-25T11:00:00Z"}}},{"lid":"RVRT2","name":"Trinity River at Riverside","latitude":30.8591666666667,"longitude":-95.3986111111111,"status":{"observed":{"primary":130.64,"primaryUnit":"ft","secondary":58.7,"secondaryUnit":"kcfs","floodCategory":"no_flooding","validTime":"2026-07-23T19:30:00Z"},"forecast":{"primary":130.6,"primaryUnit":"ft","secondary":58.6,"secondaryUnit":"kcfs","floodCategory":"no_flooding","validTime":"2026-07-24T00:00:00Z"}}},{"lid":"RYET2","name":"Menard Creek near Rye","latitude":30.4811,"longitude":-94.7794,"status":{"observed":{"primary":9.15,"primaryUnit":"ft","secondary":0.0554,"secondaryUnit":"kcfs","floodCategory":"no_flooding","validTime":"2026-07-23T19:15:00Z"},"forecast":{"primary":-999,"primaryUnit":"","secondary":-999,"secondaryUnit":"","floodCategory":"fcst_not_current","validTime":"0001-01-01T00:00:00Z"}}},{"lid":"SBMT2","name":"Navidad River at Sublime","latitude":29.46666666666667,"longitude":-96.8125,"status":{"observed":{"primary":5.31,"primaryUnit":"ft","secondary":0.0043,"secondaryUnit":"kcfs","floodCategory":"no_flooding","validTime":"2026-07-23T20:00:00Z"},