{"generated": "2026-07-17T16:58:48Z", "source": "NWPS bbox snapshot (ops cycle)", "gauges": [{"lid": "AAIT2", "name": "Williamson Creek at Manchaca Road at Austin", "latitude": 30.221111111111, "longitude": -97.793333333333, "status": {"observed": {"primary": 2.21, "primaryUnit": "ft", "secondary": 0.0015, "secondaryUnit": "kcfs", "floodCategory": "no_flooding", "validTime": "2026-07-17T16:30:00Z"}, "forecast": {"primary": -999, "primaryUnit": "", "secondary": -999, "secondaryUnit": "", "floodCategory": "fcst_not_current", "validTime": "0001-01-01T00:00:00Z"}}}, {"lid": "ABTT2", "name": "Barton Creek at Loop 360", "latitude": 30.244444444444, "longitude": -97.801944444444, "status": {"observed": {"primary": 1.65, "primaryUnit": "ft", "secondary": -999, "secondaryUnit": "kcfs", "floodCategory": "no_flooding", "validTime": "2026-07-17T16:00:00Z"}, "forecast": {"primary": -999, "primaryUnit": "", "secondary": -999, "secondaryUnit": "", "floodCategory": "fcst_not_current", "validTime": "0001-01-01T00:00:00Z"}}}, {"lid": "ABUT2", "name": "Bull Creek above Loop 360", "latitude": 30.371944444444, "longitude": -97.784444444444, "status": {"observed": {"primary": 1.76, "primaryUnit": "ft", "secondary": 0.0153, "secondaryUnit": "kcfs", "floodCategory": "no_flooding", "validTime": "2026-07-17T16:00:00Z"}, "forecast": {"primary": -999, "primaryUnit": "", "secondary": -999, "secondaryUnit": "", "floodCategory": "fcst_not_current", "validTime": "0001-01-01T00:00:00Z"}}}, {"lid": "ACRT2", "name": "Colorado River (TX) at Austin", "latitude": 30.246111111111, "longitude": -97.68, "status": {"observed": {"primary": 13.39, "primaryUnit": "ft", "secondary": 0.331, "secondaryUnit": "kcfs", "floodCategory": "no_flooding", "validTime": "2026-07-17T16:00:00Z"}, "forecast": {"primary": 16.7, "primaryUnit": "ft", "secondary": 1.52, "secondaryUnit": "kcfs", "floodCategory": "no_flooding", "validTime": "2026-07-18T19:00:00Z"}}}, {"lid": "AHOT2", "name": "Shoal Creek at West 12th Street", "latitude": 30.276388888889, "longitude": -97.75, "status": {"observed": {"primary": 2.17, "primaryUnit": "ft", "secondary": 0.0203, "secondaryUnit": "kcfs", "floodCategory": "no_flooding", "validTime": "2026-07-17T16:20:00Z"}, "forecast": {"primary": -999, "primaryUnit": "", "secondary": -999, "secondaryUnit": "", "floodCategory": "fcst_not_current", "validTime": "0001-01-01T00:00:00Z"}}}, {"lid": "ALKT2", "name": "Colorado River (TX) at Lake Austin", "latitude": 30.3149283, "longitude": -97.7863958, "status": {"observed": {"primary": 492.02, "primaryUnit": "ft", "secondary": -999, "secondaryUnit": "kcfs", "floodCategory": "not_defined", "validTime": "2026-07-17T16:00:00Z"}, "forecast": {"primary": -999, "primaryUnit": "", "secondary": -999, "secondaryUnit": "", "floodCategory": "fcst_not_current", "validTime": "0001-01-01T00:00:00Z"}}}, {"lid": "AMIT2", "name": "Rio Grande at Lake Amistad", "latitude": 29.4502245, "longitude": -101.0587107, "status": {"observed": {"primary": 1050.2, "primaryUnit": "ft", "secondary": 50.2, "secondaryUnit": "kcfs", "floodCategory": "no_flooding", "validTime": "2026-07-17T16:15:00Z"}, "forecast": {"primary": -999, "primaryUnit": "", "secondary": -999, "secondaryUnit": "", "floodCategory": "fcst_not_current", "validTime": "0001-01-01T00:00:00Z"}}}, {"lid": "ASHT2", "name": "Shoal Creek above Silverway Drive", "latitude": 30.354166666667, "longitude": -97.738888888889, "status": {"observed": {"primary": 1.59, "primaryUnit": "ft", "secondary": -999, "secondaryUnit": "kcfs", "floodCategory": "not_defined", "validTime": "2026-07-17T16:15:00Z"}, "forecast": {"primary": -999, "primaryUnit": "", "secondary": -999, "secondaryUnit": "", "floodCategory": "fcst_not_current", "validTime": "0001-01-01T00:00:00Z"}}}, {"lid": "ASRT2", "name": "Nueces River near Asherton", "latitude": 28.5, "longitude": -99.681666666667, "status": {"observed": {"primary": 25.12, "primaryUnit": "ft", "secondary": 5.49, "secondaryUnit": "kcfs", "floodCategory": "moderate", "validTime": "2026-07-17T16:30:00Z"}, "forecast": {"primary": 30.2, "primaryUnit": "ft", "secondary": 14.1, "secondaryUnit": "kcfs", "floodCategory": "major", "validTime": "2026-07-18T12:00:00Z"}}}, {"lid": "ATCT2", "name": "Atascosa River at FM 476 near Pleasanton", "latitude": 29, "longitude": -98.5116, "status": {"observed": {"primary": 6.18, "primaryUnit": "ft", "secondary": 0.0013, "secondaryUnit": "kcfs", "floodCategory": "not_defined", "validTime": "2026-07-17T16:30:00Z"}, "forecast": {"primary": -999, "primaryUnit": "", "secondary": -999, "secondaryUnit": "", "floodCategory": "fcst_not_current", "validTime": "0001-01-01T00:00:00Z"}}}, {"lid": "ATIT2", "name": "Onion Creek at US 183", "latitude": 30.177777777778, "longitude": -97.688333333333, "status": {"observed": {"primary": 6.29, "primaryUnit": "ft", "secondary": 0.109, "secondaryUnit": "kcfs", "floodCategory": "no_flooding", "validTime": "2026-07-17T16:20:00Z"}, "forecast": {"primary": -999, "primaryUnit": "", "secondary": -999, "secondaryUnit": "", "floodCategory": "fcst_not_current", "validTime": "0001-01-01T00:00:00Z"}}}, {"lid": "BAPT2", "name": "Blanco River at Crabapple Road", "latitude": 30.1025, "longitude": -98.51055555555556, "status": {"observed": {"primary": 1.04, "primaryUnit": "ft", "secondary": 0.0783, "secondaryUnit": "kcfs", "floodCategory": "no_flooding", "validTime": "2026-07-17T16:30:00Z"}, "forecast": {"primary": -999, "primaryUnit": "", "secondary": -999, "secondaryUnit": "", "floodCategory": "fcst_not_current", "validTime": "0001-01-01T00:00:00Z"}}}, {"lid": "BCCT2", "name": "Barton Creek above Barton Springs", "latitude": 30.263333333333, "longitude": -97.771944444444, "status": {"observed": {"primary": 1.42, "primaryUnit": "ft", "secondary": 0.0015, "secondaryUnit": "kcfs", "floodCategory": "not_defined", "validTime": "2026-07-17T16:20:00Z"}, "forecast": {"primary": -999, "primaryUnit": "", "secondary": -999, "secondaryUnit": "", "floodCategory": "fcst_not_current", "validTime": "0001-01-01T00:00:00Z"}}}, {"lid": "BCDT2", "name": "Bear Creek below Route 1826 at Driftwood", "latitude": 30.155277777778, "longitude": -97.939722222222, "status": {"observed": {"primary": 3.59, "primaryUnit": "ft", "secondary": 0.0048, "secondaryUnit": "kcfs", "floodCategory": "not_defined", "validTime": "2026-07-17T16:30:00Z"}, "forecast": {"primary": -999, "primaryUnit": "", "secondary": -999, "secondaryUnit": "", "floodCategory": "fcst_not_current", "validTime": "0001-01-01T00:00:00Z"}}}, {"lid": "BCIT2", "name": "Brushy Creek at I-35 Round Rock", "latitude": 30.512777777777778, "longitude": -97.68638888888889, "status": {"observed": {"primary": 4.97, "primaryUnit": "ft", "secondary": 0.262, "secondaryUnit": "kcfs", "floodCategory": "not_defined", "validTime": "2026-07-17T16:20:00Z"}, "forecast": {"primary": -999, "primaryUnit": "", "secondary": -999, "secondaryUnit": "", "floodCategory": "fcst_not_current", "validTime": "0001-01-01T00:00:00Z"}}}, {"lid": "BCMT2", "name": "Bear Creek at Spillar Ranch Road", "latitude": 30.163611111111113, "longitude": -97.90694444444445, "status": {"observed": {"primary": 1.26, "primaryUnit": "ft", "secondary": 0.0051, "secondaryUnit": "kcfs", "floodCategory": "not_defined", "validTime": "2026-07-17T16:10:00Z"}, "forecast": {"primary": -999, "primaryUnit": "", "secondary": -999, "secondaryUnit": "", "floodCategory": "fcst_not_current", "validTime": "0001-01-01T00:00:00Z"}}}, {"lid": "BCWT2", "name": "Boggy Creek at Webberville Road", "latitude": 30.263055555556, "longitude": -97.7125, "status": {"observed": {"primary": 0.76, "primaryUnit": "ft", "secondary": 0.0028, "secondaryUnit": "kcfs", "floodCategory": "not_defined", "validTime": "2026-07-17T16:20:00Z"}, "forecast": {"primary": -999, "primaryUnit": "", "secondary": -999, "secondaryUnit": "", "floodCategory": "fcst_not_current", "validTime": "0001-01-01T00:00:00Z"}}}, {"lid": "BDAT2", "name": "Medina River at Bandera", "latitude": 29.723611111111, "longitude": -99.069722222222, "status": {"observed": {"primary": 10.14, "primaryUnit": "ft", "secondary": 1.72, "secondaryUnit": "kcfs", "floodCategory": "action", "validTime": "2026-07-17T15:45:00Z"}, "forecast": {"primary": 9.6, "primaryUnit": "ft", "secondary": 1.24, "secondaryUnit": "kcfs", "floodCategory": "no_flooding", "validTime": "2026-07-17T17:00:00Z"}}}, {"lid": "BDUT2", "name": "Onion Creek at Buda", "latitude": 30.086666666667, "longitude": -97.848611111111, "status": {"observed": {"primary": 3.87, "primaryUnit": "ft", "secondary": 0.0003, "secondaryUnit": "kcfs", "floodCategory": "no_flooding", "validTime": "2026-07-17T16:00:00Z"}, "forecast": {"primary": -999, "primaryUnit": "", "secondary": -999, "secondaryUnit": "", "floodCategory": "fcst_not_current", "validTime": "0001-01-01T00:00:00Z"}}}, {"lid": "BEST2", "name": "Bear Creek at FM 2722 nr Sattler", "latitude": 29.808333333333334, "longitude": -98.23027777777777, "status": {"observed": {"primary": 2.34, "primaryUnit": "ft", "secondary": -999, "secondaryUnit": "kcfs", "floodCategory": "not_defined", "validTime": "2026-07-17T16:30:00Z"}, "forecast": {"primary": -999, "primaryUnit": "", "secondary": -999, "secondaryUnit": "", "floodCategory": "fcst_not_current", "validTime": "0001-01-01T00:00:00Z"}}}, {"lid": "BFST2", "name": "Blanco River at Fischer Store Rd near Fischer", "latitude": 30.000583, "longitude": -98.200361, "status": {"observed": {"primary": 4.39, "primaryUnit": "ft", "secondary": 0.158, "secondaryUnit": "kcfs", "floodCategory": "no_flooding", "validTime": "2026-07-17T16:30:00Z"}, "forecast": {"primary": -999, "primaryUnit": "", "secondary": -999, "secondaryUnit": "", "floodCategory": "fcst_not_current", "validTime": "0001-01-01T00:00:00Z"}}}, {"lid": "BGMT2", "name": "Boggy Creek at Manor Road", "latitude": 30.286111111111, "longitude": -97.708611111111, "status": {"observed": {"primary": 1.14, "primaryUnit": "ft", "secondary": 0.0028, "secondaryUnit": "kcfs", "floodCategory": "not_defined", "validTime": "2026-07-17T16:30:00Z"}, "forecast": {"primary": -999, "primaryUnit": "", "secondary": -999, "secondaryUnit": "", "floodCategory": "fcst_not_current", "validTime": "0001-01-01T00:00:00Z"}}}, {"lid": "BKCT2", "name": "Devils River at Bakers Crossing near Juno", "latitude": 29.95, "longitude": -101.13027777778, "status": {"observed": {"primary": 2.68, "primaryUnit": "ft", "secondary": 0.061, "secondaryUnit": "kcfs", "floodCategory": "no_flooding", "validTime": "2026-07-17T16:15:00Z"}, "forecast": {"primary": 6.7, "primaryUnit": "ft", "secondary": 3, "secondaryUnit": "kcfs", "floodCategory": "minor", "validTime": "2026-07-18T10:00:00Z"}}}, {"lid": "BKFT2", "name": "Brushy Creek at Kenney Fort Blvd nr Round Rock", "latitude": 30.512222, "longitude": -97.636667, "status": {"observed": {"primary": 5.14, "primaryUnit": "ft", "secondary": 0.457, "secondaryUnit": "kcfs", "floodCategory": "not_defined", "validTime": "2026-07-17T15:35:00Z"}, "forecast": {"primary": -999, "primaryUnit": "", "secondary": -999, "secondaryUnit": "", "floodCategory": "fcst_not_current", "validTime": "0001-01-01T00:00:00Z"}}}, {"lid": "BKTT2", "name": "Brushy Creek at FM 619 near Taylor", "latitude": 30.519444444444446, "longitude": -97.33833333333334, "status": {"observed": {"primary": 12.23, "primaryUnit": "ft", "secondary": 0.663, "secondaryUnit": "kcfs", "floodCategory": "not_defined", "validTime": "2026-07-17T16:15:00Z"}, "forecast": {"primary": -999, "primaryUnit": "", "secondary": -999, "secondaryUnit": "", "floodCategory": "fcst_not_current", "validTime": "0001-01-01T00:00:00Z"}}}, {"lid": "BLET2", "name": "Leon River near Belton", "latitude": 31.07, "longitude": -97.4411111111111, "status": {"observed": {"primary": 3.77, "primaryUnit": "ft", "secondary": 0.0409, "secondaryUnit": "kcfs", "floodCategory": "no_flooding", "validTime": "2026-07-17T16:15:00Z"}, "forecast": {"primary": -999, "primaryUnit": "", "secondary": -999, "secondaryUnit": "", "floodCategory": "fcst_not_current", "validTime": "0001-01-01T00:00:00Z"}}}, {"lid": "BRBT2", "name": "Blanco River at Blanco", "latitude": 30.0928, "longitude": -98.42318, "status": {"observed": {"primary": 12.76, "primaryUnit": "ft", "secondary": 0.0973, "secondaryUnit": "kcfs", "floodCategory": "no_flooding", "validTime": "2026-07-17T16:00:00Z"}, "forecast": {"primary": 12.8, "primaryUnit": "ft", "secondary": 0.121, "secondaryUnit": "kcfs", "floodCategory": "no_flooding", "validTime": "2026-07-17T17:00:00Z"}}}, {"lid": "BRLT2", "name": "Lavaca River at Breslau", "latitude": 29.520277777778, "longitude": -97.001666666667, "status": {"observed": {"primary": -999, "primaryUnit": "", "secondary": -999, "secondaryUnit": "", "floodCategory": "obs_not_current", "validTime": "0001-01-01T00:00:00Z"}, "forecast": {"primary": -999, "primaryUnit": "", "secondary": -999, "secondaryUnit": "", "floodCategory": "fcst_not_current", "validTime": "0001-01-01T00:00:00Z"}}}, {"lid": "BRTT2", "name": "Colorado River (TX) at Bastrop", "latitude": 30.104444444444, "longitude": -97.319166666667, "status": {"observed": {"primary": 4.2, "primaryUnit": "ft", "secondary": 1.4, "secondaryUnit": "kcfs", "floodCategory": "no_flooding", "validTime": "2026-07-17T16:00:00Z"}, "forecast": {"primary": 4.2, "primaryUnit": "ft", "secondary": 1.4, "secondaryUnit": "kcfs", "floodCategory": "no_flooding", "validTime": "2026-07-17T17:00:00Z"}}}, {"lid": "BSJT2", "name": "South Fork Rocky Creek near Briggs, TX", "latitude": 30.911388888889, "longitude": -98.036666666667, "status": {"observed": {"primary": 1.46, "primaryUnit": "ft", "secondary": 0.0041, "secondaryUnit": "kcfs", "floodCategory": "not_defined", "validTime": "2026-07-17T16:30:00Z"}, "forecast": {"primary": -999, "primaryUnit": "", "secondary": -999, "secondaryUnit": "", "floodCategory": "fcst_not_current", "validTime": "0001-01-01T00:00:00Z"}}}, {"lid": "BSMT2", "name": "Blanco River at San Marcos", "latitude": 29.879444444444, "longitude": -97.910555555556, "status": {"observed": {"primary": 10.68, "primaryUnit": "ft", "secondary": 0.541, "secondaryUnit": "kcfs", "floodCategory": "no_flooding", "validTime": "2026-07-17T15:45:00Z"}, "forecast": {"primary": -999, "primaryUnit": "", "secondary": -999, "secondaryUnit": "", "floodCategory": "fcst_not_current", "validTime": "0001-01-01T00:00:00Z"}}}, {"lid": "BSST2", "name": "San Saba River near Brady", "latitude": 31.003888888889, "longitude": -99.268611111111, "status": {"observed": {"primary": 3.06, "primaryUnit": "ft", "secondary": 0.226, "secondaryUnit": "kcfs", "floodCategory": "no_flooding", "validTime": "2026-07-17T16:00:00Z"}, "forecast": {"primary": -999, "primaryUnit": "", "secondary": -999, "secondaryUnit": "", "floodCategory": "fcst_not_current", "validTime": "0001-01-01T00:00:00Z"}}}, {"lid": "BSWT2", "name": "Salado Creek at Wilderness Road near San Antonio", "latitude": 29.630555555555556, "longitude": -98.56527777777778, "status": {"observed": {"primary": 4.33, "primaryUnit": "ft", "secondary": -999, "secondaryUnit": "kcfs", "floodCategory": "not_defined", "validTime": "2026-07-17T16:00:00Z"}, "forecast": {"primary": -999, "primaryUnit": "", "secondary": -999, "secondaryUnit": "", "floodCategory": "fcst_not_current", "validTime": "0001-01-01T00:00:00Z"}}}, {"lid": "BSYT2", "name": "Brushy Creek at FM 973 nr Coupland", "latitude": 30.469167, "longitude": -97.463333, "status": {"observed": {"primary": 7.59, "primaryUnit": "ft", "secondary": 0.294, "secondaryUnit": "kcfs", "floodCategory": "not_defined", "validTime": "2026-07-17T15:40:00Z"}, "forecast": {"primary": -999, "primaryUnit": "", "secondary": -999, "secondaryUnit": "", "floodCategory": "fcst_not_current", "validTime": "0001-01-01T00:00:00Z"}}}, {"lid": "BTVT2", "name": "West Nueces River at Brackettville", "latitude": 29.48108333, "longitude": -100.2391667, "status": {"observed": {"primary": 22.86, "primaryUnit": "ft", "secondary": 74.2, "secondaryUnit": "kcfs", "floodCategory": "major", "validTime": "2026-07-15T15:30:00Z"}, "forecast": {"primary": 10, "primaryUnit": "ft", "secondary": 7.58, "secondaryUnit": "kcfs", "floodCategory": "action", "validTime": "2026-07-17T17:00:00Z"}}}, {"lid": "BUDT2", "name": "Colorado River (TX) at Lake Buchanan", "latitude": 30.751388888889, "longitude": -98.418055555556, "status": {"observed": {"primary": 1019.47, "primaryUnit": "ft", "secondary": 59.5, "secondaryUnit": "kcfs", "floodCategory": "not_defined", "validTime": "2026-07-17T16:00:00Z"}, "forecast": {"primary": -999, "primaryUnit": "", "secondary": -999, "secondaryUnit": "", "floodCategory": "fcst_not_current", "validTime": "0001-01-01T00:00:00Z"}}}, {"lid": "BVST2", "name": "Cibolo Creek at Specht Road near Bulverde", "latitude": 29.73677777777, "longitude": -98.4933722222, "status": {"observed": {"primary": 10.24, "primaryUnit": "ft", "secondary": -999, "secondaryUnit": "kcfs", "floodCategory": "not_defined", "validTime": "2026-07-17T16:00:00Z"}, "forecast": {"primary": -999, "primaryUnit": "", "secondary": -999, "secondaryUnit": "", "floodCategory": "fcst_not_current", "validTime": "0001-01-01T00:00:00Z"}}}, {"lid": "BYBT2", "name": "Brushy Creek at Cedar Park", "latitude": 30.525, "longitude": -97.749722, "status": {"observed": {"primary": 1.13, "primaryUnit": "ft", "secondary": 0.163, "secondaryUnit": "kcfs", "floodCategory": "not_defined", "validTime": "2026-07-17T16:30:00Z"}, "forecast": {"primary": -999, "primaryUnit": "", "secondary": -999, "secondaryUnit": "", "floodCategory": "fcst_not_current", "validTime": "0001-01-01T00:00:00Z"}}}, {"lid": "CCVT2", "name": "Coleto Creek at Highway 59", "latitude": 28.731, "longitude": -97.138, "status": {"observed": {"primary": 4.07, "primaryUnit": "ft", "secondary": 0.0028, "secondaryUnit": "kcfs", "floodCategory": "no_flooding", "validTime": "2026-07-17T15:30:00Z"}, "forecast": {"primary": 4.1, "primaryUnit": "ft", "secondary": 0.003, "secondaryUnit": "kcfs", "floodCategory": "no_flooding", "validTime": "2026-07-17T18:00:00Z"}}}, {"lid": "CHOT2", "name": "Frio River at Choke Canyon Dam", "latitude": 28.483611111111, "longitude": -98.245555555556, "status": {"observed": {"primary": 179.36, "primaryUnit": "ft", "secondary": -999, "secondaryUnit": "kcfs", "floodCategory": "not_defined", "validTime": "2026-07-17T11:30:00Z"}, "forecast": {"primary": -999, "primaryUnit": "", "secondary": -999, "secondaryUnit": "", "floodCategory": "fcst_not_current", "validTime": "0001-01-01T00:00:00Z"}}}, {"lid": "CICT2", "name": "Cibolo Creek near Boerne", "latitude": 29.775, "longitude": -98.709444444444, "status": {"observed": {"primary": 9.06, "primaryUnit": "ft", "secondary": 3.4, "secondaryUnit": "kcfs", "floodCategory": "not_defined", "validTime": "2026-07-17T16:00:00Z"}, "forecast": {"primary": -999, "primaryUnit": "", "secondary": -999, "secondaryUnit": "", "floodCategory": "fcst_not_current", "validTime": "0001-01-01T00:00:00Z"}}}, {"lid": "CKDT2", "name": "Coleto Creek at Coleto Creek Reservoir", "latitude": 28.7308333, "longitude": -97.1647222, "status": {"observed": {"primary": 95.88, "primaryUnit": "ft", "secondary": 35.9, "secondaryUnit": "kcfs", "floodCategory": "not_defined", "validTime": "2026-07-17T16:00:00Z"}, "forecast": {"primary": -999, "primaryUnit": "", "secondary": -999, "secondaryUnit": "", "floodCategory": "fcst_not_current", "validTime": "0001-01-01T00:00:00Z"}}}, {"lid": "CMKT2", "name": "Devils River at Pafford Crossing near Comstock", "latitude": 29.676388888889, "longitude": -101, "status": {"observed": {"primary": 2.47, "primaryUnit": "ft", "secondary": 0.231, "secondaryUnit": "kcfs", "floodCategory": "no_flooding", "validTime": "2026-07-17T16:15:00Z"}, "forecast": {"primary": 4, "primaryUnit": "ft", "secondary": 3.19, "secondaryUnit": "kcfs", "floodCategory": "action", "validTime": "2026-07-18T09:00:00Z"}}}, {"lid": "CNCT2", "name": "Frio River at Concan", "latitude": 29.488333333333, "longitude": -99.704444444444, "status": {"observed": {"primary": 12.76, "primaryUnit": "ft", "secondary": 18.2, "secondaryUnit": "kcfs", "floodCategory": "moderate", "validTime": "2026-07-17T10:40:00Z"}, "forecast": {"primary": 14.1, "primaryUnit": "ft", "secondary": 22.2, "secondaryUnit": "kcfs", "floodCategory": "moderate", "validTime": "2026-07-17T17:00:00Z"}}}, {"lid": "CNXT2", "name": "Cibolo Creek at Cibolo Nature Center", "latitude": 29.781111111111, "longitude": -98.712777777778, "status": {"observed": {"primary": -999, "primaryUnit": "", "secondary": -999, "secondaryUnit": "", "floodCategory": "out_of_service", "validTime": "0001-01-01T00:00:00Z"}, "forecast": {"primary": -999, "primaryUnit": "", "secondary": -999, "secondaryUnit": "", "floodCategory": "out_of_service", "validTime": "0001-01-01T00:00:00Z"}}}, {"lid": "COMT2", "name": "Guadalupe River at Comfort", "latitude": 29.96523889, "longitude": -98.8971667, "status": {"observed": {"primary": 10.92, "primaryUnit": "ft", "secondary": 4.65, "secondaryUnit": "kcfs", "floodCategory": "action", "validTime": "2026-07-17T16:05:00Z"}, "forecast": {"primary": 12.1, "primaryUnit": "ft", "secondary": 6.26, "secondaryUnit": "kcfs", "floodCategory": "action", "validTime": "2026-07-18T00:00:00Z"}}}, {"lid": "COTT2", "name": "Nueces River at Cotulla", "latitude": 28.426111111111, "longitude": -99.239722222222, "status": {"observed": {"primary": 4.06, "primaryUnit": "ft", "secondary": -999, "secondaryUnit": "kcfs", "floodCategory": "no_flooding", "validTime": "2026-07-17T16:00:00Z"}, "forecast": {"primary": 20.5, "primaryUnit": "ft", "secondary": 11.7, "secondaryUnit": "kcfs", "floodCategory": "major", "validTime": "2026-07-22T06:00:00Z"}}}, {"lid": "CPNT2", "name": "Tide Gauge at Copano Bay", "latitude": 28.116944444444446, "longitude": -97.0175, "status": {"observed": {"primary": 0.53, "primaryUnit": "ft", "secondary": -999, "secondaryUnit": "kcfs", "floodCategory": "no_flooding", "validTime": "2026-07-17T16:06:00Z"}, "forecast": {"primary": -0.06, "primaryUnit": "ft", "secondary": -999, "secondaryUnit": "kcfs", "floodCategory": "fcst_not_current", "validTime": "2026-07-18T00:00:00Z"}}}, {"lid": "CRMT2", "name": "Rio Grande below Amistad Dam", "latitude": 29.425, "longitude": -101.04027777777777, "status": {"observed": {"primary": 1.01, "primaryUnit": "ft", "secondary": 0.815, "secondaryUnit": "kcfs", "floodCategory": "not_defined", "validTime": "2026-07-17T15:15:00Z"}, "forecast": {"primary": -999, "primaryUnit": "", "secondary": -999, "secondaryUnit": "", "floodCategory": "fcst_not_current", "validTime": "0001-01-01T00:00:00Z"}}}, {"lid": "CSVT2", "name": "Cibolo Creek at Smithson Valley Rd nr Bulverde", "latitude": 29.748333333333, "longitude": -98.407777777778, "status": {"observed": {"primary": -999, "primaryUnit": "", "secondary": -999, "secondaryUnit": "", "floodCategory": "out_of_service", "validTime": "0001-01-01T00:00:00Z"}, "forecast": {"primary": -999, "primaryUnit": "", "secondary": -999, "secondaryUnit": "", "floodCategory": "out_of_service", "validTime": "0001-01-01T00:00:00Z"}}}, {"lid": "CTKT2", "name": "Dry Devils River near Comstock", "latitude": 29.876666666667, "longitude": -100.89666666667, "status": {"observed": {"primary": 0.84, "primaryUnit": "ft", "secondary": -999, "secondaryUnit": "kcfs", "floodCategory": "no_flooding", "validTime": "2026-07-17T16:15:00Z"}, "forecast": {"primary": -999, "primaryUnit": "", "secondary": -999, "secondaryUnit": "", "floodCategory": "fcst_not_current", "validTime": "0001-01-01T00:00:00Z"}}}, {"lid": "CUET2", "name": "Guadalupe River near Cuero", "latitude": 29.090277777778, "longitude": -97.329444444444, "status": {"observed": {"primary": 8.04, "primaryUnit": "ft", "secondary": 0.679, "secondaryUnit": "kcfs", "floodCategory": "no_flooding", "validTime": "2026-07-17T15:30:00Z"}, "forecast": {"primary": 12.8, "primaryUnit": "ft", "secondary": 3.56, "secondaryUnit": "kcfs", "floodCategory": "no_flooding", "validTime": "2026-07-18T09:00:00Z"}}}, {"lid": "DBYT2", "name": "Frio River near Derby", "latitude": 28.736388888889, "longitude": -99.144444444444, "status": {"observed": {"primary": 12.59, "primaryUnit": "ft", "secondary": 14.2, "secondaryUnit": "kcfs", "floodCategory": "moderate", "validTime": "2026-07-17T15:30:00Z"}, "forecast": {"primary": 21, "primaryUnit": "ft", "secondary": 50.1, "secondaryUnit": "kcfs", "floodCategory": "major", "validTime": "2026-07-18T06:00:00Z"}}}, {"lid": "DLRT2", "name": "Rio Grande at Del Rio", "latitude": 29.330833333333, "longitude": -100.92888888889, "status": {"observed": {"primary": 1.64, "primaryUnit": "ft", "secondary": 0.763, "secondaryUnit": "kcfs", "floodCategory": "no_flooding", "validTime": "2026-07-17T16:15:00Z"}, "forecast": {"primary": 2.4, "primaryUnit": "ft", "secondary": 2.64, "secondaryUnit": "kcfs", "floodCategory": "no_flooding", "validTime": "2026-07-17T18:00:00Z"}}}, {"lid": "DLWT2", "name": "Peach Creek below Dilworth", "latitude": 29.473888888889, "longitude": -97.316388888889, "status": {"observed": {"primary": 9.29, "primaryUnit": "ft", "secondary": 0.0276, "secondaryUnit": "kcfs", "floodCategory": "not_defined", "validTime": "2026-07-17T16:00:00Z"}, "forecast": {"primary": -999, "primaryUnit": "", "secondary": -999, "secondaryUnit": "", "floodCategory": "fcst_not_current", "validTime": "0001-01-01T00:00:00Z"}}}, {"lid": "DOLT2", "name": "Dolan Creek above Devils River near Comstock", "latitude": 29.888333333333, "longitude": -100.98972222222, "status": {"observed": {"primary": 2.9, "primaryUnit": "ft", "secondary": 0.025, "secondaryUnit": "kcfs", "floodCategory": "not_defined", "validTime": "2026-07-17T15:45:00Z"}, "forecast": {"primary": -999, "primaryUnit": "", "secondary": -999, "secondaryUnit": "", "floodCategory": "fcst_not_current", "validTime": "0001-01-01T00:00:00Z"}}}, {"lid": "DRWT2", "name": "Onion Creek near Driftwood", "latitude": 30.082777777778, "longitude": -98.0075, "status": {"observed": {"primary": 2.53, "primaryUnit": "ft", "secondary": 0.0039, "secondaryUnit": "kcfs", "floodCategory": "no_flooding", "validTime": "2026-07-17T16:15:00Z"}, "forecast": {"primary": -999, "primaryUnit": "", "secondary": -999, "secondaryUnit": "", "floodCategory": "fcst_not_current", "validTime": "0001-01-01T00:00:00Z"}}}, {"lid": "EGYT2", "name": "Wilbarger Creek at Elgin", "latitude": 30.231944444444, "longitude": -97.432777777778, "status": {"observed": {"primary": 6.25, "primaryUnit": "ft", "secondary": 0.0499, "secondaryUnit": "kcfs", "floodCategory": "no_flooding", "validTime": "2026-07-17T16:00:00Z"}, "forecast": {"primary": -999, "primaryUnit": "", "secondary": -999, "secondaryUnit": "", "floodCategory": "fcst_not_current", "validTime": "0001-01-01T00:00:00Z"}}}, {"lid": "EGZT2", "name": "Big Sandy Creek (TX) near Elgin", "latitude": 30.2656, "longitude": -97.3281, "status": {"observed": {"primary": 0.59, "primaryUnit": "ft", "secondary": 0.0006, "secondaryUnit": "kcfs", "floodCategory": "no_flooding", "validTime": "2026-07-17T16:00:00Z"}, "forecast": {"primary": -999, "primaryUnit": "", "secondary": -999, "secondaryUnit": "", "floodCategory": "fcst_not_current", "validTime": "0001-01-01T00:00:00Z"}}}, {"lid": "ELMT2", "name": "San Antonio River at Elmendorf", "latitude": 29.221944444444, "longitude": -98.355555555556, "status": {"observed": {"primary": 22.83, "primaryUnit": "ft", "secondary": 2.49, "secondaryUnit": "kcfs", "floodCategory": "no_flooding", "validTime": "2026-07-17T15:30:00Z"}, "forecast": {"primary": 22.4, "primaryUnit": "ft", "secondary": 2.4, "secondaryUnit": "kcfs", "floodCategory": "no_flooding", "validTime": "2026-07-17T17:00:00Z"}}}, {"lid": "ELNT2", "name": "Rio Grande at El Indio", "latitude": 28.35, "longitude": -100.32, "status": {"observed": {"primary": 9.67, "primaryUnit": "ft", "secondary": 31, "secondaryUnit": "kcfs", "floodCategory": "not_defined", "validTime": "2026-07-17T16:00:00Z"}, "forecast": {"primary": -999, "primaryUnit": "", "secondary": -999, "secondaryUnit": "", "floodCategory": "fcst_not_current", "validTime": "0001-01-01T00:00:00Z"}}}, {"lid": "EPPT2", "name": "Rio Grande at Eagle Pass", "latitude": 28.713888888889, "longitude": -100.50694444444, "status": {"observed": {"primary": 17.86, "primaryUnit": "ft", "secondary": 43.7, "secondaryUnit": "kcfs", "floodCategory": "minor", "validTime": "2026-07-17T16:00:00Z"}, "forecast": {"primary": 23.2, "primaryUnit": "ft", "secondary": 71.9, "secondaryUnit": "kcfs", "floodCategory": "moderate", "validTime": "2026-07-18T00:00:00Z"}}}, {"lid": "FACT2", "name": "San Antonio River near Falls City", "latitude": 28.951388888889, "longitude": -98.063888888889, "status": {"observed": {"primary": 4.57, "primaryUnit": "ft", "secondary": 2.36, "secondaryUnit": "kcfs", "floodCategory": "no_flooding", "validTime": "2026-07-17T15:15:00Z"}, "forecast": {"primary": 5.1, "primaryUnit": "ft", "secondary": 2.8, "secondaryUnit": "kcfs", "floodCategory": "no_flooding", "validTime": "2026-07-18T04:00:00Z"}}}, {"lid": "FCTT2", "name": "Cibolo Creek near Falls City", "latitude": 29.013888888889, "longitude": -97.93, "status": {"observed": {"primary": 20.4, "primaryUnit": "ft", "secondary": 7.55, "secondaryUnit": "kcfs", "floodCategory": "minor", "validTime": "2026-07-17T16:15:00Z"}, "forecast": {"primary": 23.6, "primaryUnit": "ft", "secondary": 11.1, "secondaryUnit": "kcfs", "floodCategory": "moderate", "validTime": "2026-07-18T05:00:00Z"}}}, {"lid": "FILT2", "name": "Frio River at at Leakey", "latitude": 29.72277777777778, "longitude": -99.75333333333333, "status": {"observed": {"primary": 8.32, "primaryUnit": "ft", "secondary": -999, "secondaryUnit": "kcfs", "floodCategory": "not_defined", "validTime": "2026-07-17T16:15:00Z"}, "forecast": {"primary": -999, "primaryUnit": "", "secondary": -999, "secondaryUnit": "", "floodCategory": "fcst_not_current", "validTime": "0001-01-01T00:00:00Z"}}}, {"lid": "FLVT2", "name": "San Antonio River near Floresville", "latitude": 29.11, "longitude": -98.174444444444, "status": {"observed": {"primary": 20.53, "primaryUnit": "ft", "secondary": 3.74, "secondaryUnit": "kcfs", "floodCategory": "no_flooding", "validTime": "2026-07-17T16:00:00Z"}, "forecast": {"primary": 21.3, "primaryUnit": "ft", "secondary": 4.03, "secondaryUnit": "kcfs", "floodCategory": "action", "validTime": "2026-07-17T18:00:00Z"}}}, {"lid": "FMFT2", "name": "Berry Creek near Florence, TX", "latitude": 30.8106, "longitude": -97.826, "status": {"observed": {"primary": 7.12, "primaryUnit": "ft", "secondary": -999, "secondaryUnit": "kcfs", "floodCategory": "not_defined", "validTime": "2026-07-17T16:05:00Z"}, "forecast": {"primary": -999, "primaryUnit": "", "secondary": -999, "secondaryUnit": "", "floodCategory": "fcst_not_current", "validTime": "0001-01-01T00:00:00Z"}}}, {"lid": "FRBT2", "name": "Pedernales River at Fredericksburg", "latitude": 30.220277777778, "longitude": -98.869444444444, "status": {"observed": {"primary": 9.66, "primaryUnit": "ft", "secondary": 1.07, "secondaryUnit": "kcfs", "floodCategory": "no_flooding", "validTime": "2026-07-17T16:00:00Z"}, "forecast": {"primary": 9.8, "primaryUnit": "ft", "secondary": 1.19, "secondaryUnit": "kcfs", "floodCategory": "no_flooding", "validTime": "2026-07-17T17:00:00Z"}}}, {"lid": "GBCT2", "name": "Guadalupe River below Comal", "latitude": 29.697777777778, "longitude": -98.106388888889, "status": {"observed": {"primary": 9.81, "primaryUnit": "ft", "secondary": 0.673, "secondaryUnit": "kcfs", "floodCategory": "no_flooding", "validTime": "2026-07-17T16:00:00Z"}, "forecast": {"primary": 9.8, "primaryUnit": "ft", "secondary": 0.664, "secondaryUnit": "kcfs", "floodCategory": "no_flooding", "validTime": "2026-07-17T17:00:00Z"}}}, {"lid": "GCCT2", "name": "Culebra Creek at GCSNA near Helotes", "latitude": 29.539166666667, "longitude": -98.751388888889, "status": {"observed": {"primary": 0.17, "primaryUnit": "ft", "secondary": -999, "secondaryUnit": "kcfs", "floodCategory": "not_defined", "validTime": "2026-07-17T15:15:00Z"}, "forecast": {"primary": -999, "primaryUnit": "", "secondary": -999, "secondaryUnit": "", "floodCategory": "fcst_not_current", "validTime": "0001-01-01T00:00:00Z"}}}, {"lid": "GCST2", "name": "Geronimo Creek near Seguin 2NE", "latitude": 29.5905, "longitude": -97.9347, "status": {"observed": {"primary": 4.53, "primaryUnit": "ft", "secondary": -999, "secondaryUnit": "kcfs", "floodCategory": "not_defined", "validTime": "2026-07-17T16:00:00Z"}, "forecast": {"primary": -999, "primaryUnit": "", "secondary": -999, "secondaryUnit": "", "floodCategory": "fcst_not_current", "validTime": "0001-01-01T00:00:00Z"}}}, {"lid": "GCTT2", "name": "Guadalupe River near Centerpoint", "latitude": 29.987777777778, "longitude": -99.11, "status": {"observed": {"primary": 7.68, "primaryUnit": "ft", "secondary": 1.34, "secondaryUnit": "kcfs", "floodCategory": "not_defined", "validTime": "2026-07-17T16:10:00Z"}, "forecast": {"primary": -999, "primaryUnit": "", "secondary": -999, "secondaryUnit": "", "floodCategory": "fcst_not_current", "validTime": "0001-01-01T00:00:00Z"}}}, {"lid": "GDHT2", "name": "Guadalupe River at Hwy 183 near Hochheim", "latitude": 29.314444444444444, "longitude": -97.30333333333333, "status": {"observed": {"primary": 13.31, "primaryUnit": "ft", "secondary": 2.98, "secondaryUnit": "kcfs", "floodCategory": "no_flooding", "validTime": "2026-07-17T16:00:00Z"}, "forecast": {"primary": -999, "primaryUnit": "", "secondary": -999, "secondaryUnit": "", "floodCategory": "fcst_not_current", "validTime": "0001-01-01T00:00:00Z"}}}, {"lid": "GERT2", "name": "North Fork of the San Gabriel River near Georgetown", "latitude": 30.661666666667, "longitude": -97.711111111111, "status": {"observed": {"primary": 4.35, "primaryUnit": "ft", "secondary": 0.0036, "secondaryUnit": "kcfs", "floodCategory": "not_defined", "validTime": "2026-07-17T16:15:00Z"}, "forecast": {"primary": -999, "primaryUnit": "", "secondary": -999, "secondaryUnit": "", "floodCategory": "fcst_not_current", "validTime": "0001-01-01T00:00:00Z"}}}, {"lid": "GETT2", "name": "San Gabriel River at Georgetown South Fork", "latitude": 30.625555555556, "longitude": -97.690833333333, "status": {"observed": {"primary": 2.52, "primaryUnit": "ft", "secondary": 0.0889, "secondaryUnit": "kcfs", "floodCategory": "no_flooding", "validTime": "2026-07-17T16:30:00Z"}, "forecast": {"primary": -999, "primaryUnit": "", "secondary": -999, "secondaryUnit": "", "floodCategory": "fcst_not_current", "validTime": "0001-01-01T00:00:00Z"}}}, {"lid": "GGLT2", "name": "San Gabriel River at Lake Georgetown", "latitude": 30.6675, "longitude": -97.727222222222, "status": {"observed": {"primary": 793.59, "primaryUnit": "ft", "secondary": 16.8, "secondaryUnit": "kcfs", "floodCategory": "not_defined", "validTime": "2026-07-17T16:00:00Z"}, "forecast": {"primary": -999, "primaryUnit": "", "secondary": -999, "secondaryUnit": "", "floodCategory": "fcst_not_current", "validTime": "0001-01-01T00:00:00Z"}}}, {"lid": "GLIT2", "name": "San Antonio River at Goliad", "latitude": 28.649166666667, "longitude": -97.384722222222, "status": {"observed": {"primary": 9.15, "primaryUnit": "ft", "secondary": 1.35, "secondaryUnit": "kcfs", "floodCategory": "no_flooding", "validTime": "2026-07-17T16:00:00Z"}, "forecast": {"primary": 27.2, "primaryUnit": "ft", "secondary": 8.69, "secondaryUnit": "kcfs", "floodCategory": "minor", "validTime": "2026-07-21T00:00:00Z"}}}, {"lid": "GNGT2", "name": "San Gabriel River at Granger Lake", "latitude": 30.692777777778, "longitude": -97.326111111111, "status": {"observed": {"primary": 506.15, "primaryUnit": "ft", "secondary": 36.2, "secondaryUnit": "kcfs", "floodCategory": "not_defined", "validTime": "2026-07-17T16:16:00Z"}, "forecast": {"primary": -999, "primaryUnit": "", "secondary": -999, "secondaryUnit": "", "floodCategory": "fcst_not_current", "validTime": "0001-01-01T00:00:00Z"}}}, {"lid": "GNLT2", "name": "Guadalupe River at Gonzales", "latitude": 29.484302, "longitude": -97.44754, "status": {"observed": {"primary": 17.57, "primaryUnit": "ft", "secondary": 4.28, "secondaryUnit": "kcfs", "floodCategory": "action", "validTime": "2026-07-17T15:45:00Z"}, "forecast": {"primary": 17.3, "primaryUnit": "ft", "secondary": 4.08, "secondaryUnit": "kcfs", "floodCategory": "action", "validTime": "2026-07-17T18:00:00Z"}}}, {"lid": "GNRT2", "name": "North Fork San Gabriel River at Ronald Reagan Blvd near Leander 8N", "latitude": 30.697777777778, "longitude": -97.849166666667, "status": {"observed": {"primary": 2.99, "primaryUnit": "ft", "secondary": 0.0798, "secondaryUnit": "kcfs", "floodCategory": "not_defined", "validTime": "2026-07-17T15:45:00Z"}, "forecast": {"primary": -999, "primaryUnit": "", "secondary": -999, "secondaryUnit": "", "floodCategory": "fcst_not_current", "validTime": "0001-01-01T00:00:00Z"}}}, {"lid": "GPLT2", "name": "Colorado River (TX) at Lake LBJ", "latitude": 30.555833333333, "longitude": -98.338055555556, "status": {"observed": {"primary": 823.78, "primaryUnit": "ft", "secondary": -999, "secondaryUnit": "kcfs", "floodCategory": "not_defined", "validTime": "2026-07-17T16:00:00Z"}, "forecast": {"primary": -999, "primaryUnit": "", "secondary": -999, "secondaryUnit": "", "floodCategory": "fcst_not_current", "validTime": "0001-01-01T00:00:00Z"}}}, {"lid": "GRHT2", "name": "Guadalupe River above Bear Creek at Kerrville", "latitude": 30.069444444444, "longitude": -99.195, "status": {"observed": {"primary": 6.6, "primaryUnit": "ft", "secondary": -999, "secondaryUnit": "kcfs", "floodCategory": "not_defined", "validTime": "2026-07-17T16:20:00Z"}, "forecast": {"primary": -999, "primaryUnit": "", "secondary": -999, "secondaryUnit": "", "floodCategory": "fcst_not_current", "validTime": "0001-01-01T00:00:00Z"}}}, {"lid": "GRTT2", "name": "Guadalupe River at 3rd Crossing nr Sattler", "latitude": 29.803611111111, "longitude": -98.163055555556, "status": {"observed": {"primary": 3.99, "primaryUnit": "ft", "secondary": 0.148, "secondaryUnit": "kcfs", "floodCategory": "not_defined", "validTime": "2026-07-17T16:30:00Z"}, "forecast": {"primary": -999, "primaryUnit": "", "secondary": -999, "secondaryUnit": "", "floodCategory": "fcst_not_current", "validTime": "0001-01-01T00:00:00Z"}}}, {"lid": "GTWT2", "name": "Berry Creek near Georgetown", "latitude": 30.703055555556, "longitude": -97.666111111111, "status": {"observed": {"primary": 11.97, "primaryUnit": "ft", "secondary": 0.0337, "secondaryUnit": "kcfs", "floodCategory": "not_defined", "validTime": "2026-07-17T16:30:00Z"}, "forecast": {"primary": -999, "primaryUnit": "", "secondary": -999, "secondaryUnit": "", "floodCategory": "fcst_not_current", "validTime": "0001-01-01T00:00:00Z"}}}, {"lid": "GUBT2", "name": "Guadalupe River at FM474 near Bergheim", "latitude": 29.893333333333334, "longitude": -98.66972222222222, "status": {"observed": {"primary": 22.78, "primaryUnit": "ft", "secondary": 11.6, "secondaryUnit": "kcfs", "floodCategory": "not_defined", "validTime": "2026-07-17T16:30:00Z"}, "forecast": {"primary": -999, "primaryUnit": "", "secondary": -999, "secondaryUnit": "", "floodCategory": "fcst_not_current", "validTime": "0001-01-01T00:00:00Z"}}}, {"lid": "GWGT2", "name": "Guadalupe River at CR 143 near Gonzales", "latitude": 29.4875, "longitude": -97.5875, "status": {"observed": {"primary": 9.25, "primaryUnit": "ft", "secondary": 1.34, "secondaryUnit": "kcfs", "floodCategory": "not_defined", "validTime": "2026-07-17T15:30:00Z"}, "forecast": {"primary": -999, "primaryUnit": "", "secondary": -999, "secondaryUnit": "", "floodCategory": "fcst_not_current", "validTime": "0001-01-01T00:00:00Z"}}}, {"lid": "GWLT2", "name": "Lagarto Creek below George West", "latitude": 28.059444444444, "longitude": -98.096666666667, "status": {"observed": {"primary": 3.87, "primaryUnit": "ft", "secondary": -999, "secondaryUnit": "kcfs", "floodCategory": "not_defined", "validTime": "2026-07-17T16:00:00Z"}, "forecast": {"primary": -999, "primaryUnit": "", "secondary": -999, "secondaryUnit": "", "floodCategory": "fcst_not_current", "validTime": "0001-01-01T00:00:00Z"}}}, {"lid": "GWNT2", "name": "Nueces River at George West", "latitude": 28.332777777778, "longitude": -98.085555555556, "status": {"observed": {"primary": -999, "primaryUnit": "", "secondary": -999, "secondaryUnit": "", "floodCategory": "out_of_service", "validTime": "0001-01-01T00:00:00Z"}, "forecast": {"primary": -999, "primaryUnit": "", "secondary": -999, "secondaryUnit": "", "floodCategory": "out_of_service", "validTime": "0001-01-01T00:00:00Z"}}}, {"lid": "HDWT2", "name": "Cibolo Creek near St. Hedwig", "latitude": 29.501388888889, "longitude": -98.186111111111, "status": {"observed": {"primary": 17.59, "primaryUnit": "ft", "secondary": 1.88, "secondaryUnit": "kcfs", "floodCategory": "not_defined", "validTime": "2026-07-17T16:15:00Z"}, "forecast": {"primary": -999, "primaryUnit": "", "secondary": -999, "secondaryUnit": "", "floodCategory": "fcst_not_current", "validTime": "0001-01-01T00:00:00Z"}}}, {"lid": "HEIT2", "name": "Martinez Creek near Saint Hedwig", "latitude": 29.443888888889, "longitude": -98.168888888889, "status": {"observed": {"primary": 9.16, "primaryUnit": "ft", "secondary": 0.591, "secondaryUnit": "kcfs", "floodCategory": "not_defined", "validTime": "2026-07-17T15:45:00Z"}, "forecast": {"primary": -999, "primaryUnit": "", "secondary": -999, "secondaryUnit": "", "floodCategory": "fcst_not_current", "validTime": "0001-01-01T00:00:00Z"}}}, {"lid": "HFXT2", "name": "Blanco River above at Halifax Ranch near Kyle", "latitude": 30.005555555555556, "longitude": -97.9525, "status": {"observed": {"primary": 1.97, "primaryUnit": "ft", "secondary": 0.257, "secondaryUnit": "kcfs", "floodCategory": "not_defined", "validTime": "2026-07-17T15:30:00Z"}, "forecast": {"primary": -999, "primaryUnit": "", "secondary": -999, "secondaryUnit": "", "floodCategory": "fcst_not_current", "validTime": "0001-01-01T00:00:00Z"}}}, {"lid": "HLTT2", "name": "Helotes Creek at Helotes", "latitude": 29.578333333333, "longitude": -98.691388888889, "status": {"observed": {"primary": 0.91, "primaryUnit": "ft", "secondary": -999, "secondaryUnit": "kcfs", "floodCategory": "not_defined", "validTime": "2026-07-17T16:15:00Z"}, "forecast": {"primary": -999, "primaryUnit": "", "secondary": -999, "secondaryUnit": "", "floodCategory": "fcst_not_current", "validTime": "0001-01-01T00:00:00Z"}}}, {"lid": "HNFT2", "name": "North Fork Guadalupe River near Hunt", "latitude": 30.063888888889, "longitude": -99.386666666667, "status": {"observed": {"primary": 5.32, "primaryUnit": "ft", "secondary": 1.85, "secondaryUnit": "kcfs", "floodCategory": "not_defined", "validTime": "2026-07-17T16:15:00Z"}, "forecast": {"primary": -999, "primaryUnit": "", "secondary": -999, "secondaryUnit": "", "floodCategory": "fcst_not_current", "validTime": "0001-01-01T00:00:00Z"}}}, {"lid": "HNTT2", "name": "Guadalupe River at Hunt", "latitude": 30.069722222222, "longitude": -99.321388888889, "status": {"observed": {"primary": 10.47, "primaryUnit": "ft", "secondary": 1.79, "secondaryUnit": "kcfs", "floodCategory": "minor", "validTime": "2026-07-17T16:20:00Z"}, "forecast": {"primary": 10.6, "primaryUnit": "ft", "secondary": 1.96, "secondaryUnit": "kcfs", "floodCategory": "minor", "validTime": "2026-07-17T17:00:00Z"}}}, {"lid": "IKLT2", "name": "Colorado River (TX) at Inks Lake", "latitude": 30.731111111111, "longitude": -98.384722222222, "status": {"observed": {"primary": 887.14, "primaryUnit": "ft", "secondary": -999, "secondaryUnit": "kcfs", "floodCategory": "not_defined", "validTime": "2026-07-17T16:00:00Z"}, "forecast": {"primary": -999, "primaryUnit": "", "secondary": -999, "secondaryUnit": "", "floodCategory": "fcst_not_current", "validTime": "0001-01-01T00:00:00Z"}}}, {"lid": "JCIT2", "name": "Johnson Creek above Ingram", "latitude": 30.1, "longitude": -99.282777777778, "status": {"observed": {"primary": 53.8, "primaryUnit": "ft", "secondary": -999, "secondaryUnit": "kcfs", "floodCategory": "out_of_service", "validTime": "2026-07-17T16:30:00Z"}, "forecast": {"primary": -999, "primaryUnit": "", "secondary": -999, "secondaryUnit": "", "floodCategory": "out_of_service", "validTime": "0001-01-01T00:00:00Z"}}}, {"lid": "JCTT2", "name": "North Llano River near Junction", "latitude": 30.517222222222, "longitude": -99.805833333333, "status": {"observed": {"primary": 16.24, "primaryUnit": "ft", "secondary": 9.43, "secondaryUnit": "kcfs", "floodCategory": "action", "validTime": "2026-07-17T16:20:00Z"}, "forecast": {"primary": -999, "primaryUnit": "", "secondary": -999, "secondaryUnit": "", "floodCategory": "fcst_not_current", "validTime": "0001-01-01T00:00:00Z"}}}, {"lid": "JNCT2", "name": "Llano River near Junction", "latitude": 30.5041666666667, "longitude": -99.7341666666667, "status": {"observed": {"primary": 30.09, "primaryUnit": "ft", "secondary": 108, "secondaryUnit": "kcfs", "floodCategory": "moderate", "validTime": "2026-07-17T16:30:00Z"}, "forecast": {"primary": 31.3, "primaryUnit": "ft", "secondary": 120, "secondaryUnit": "kcfs", "floodCategory": "major", "validTime": "2026-07-17T17:00:00Z"}}}, {"lid": "JNXT2", "name": "Devils River at Cauthorn Ranch near Juno", "latitude": 30.079166666667, "longitude": -101.10972222222, "status": {"observed": {"primary": 4.4, "primaryUnit": "ft", "secondary": 0.001, "secondaryUnit": "kcfs", "floodCategory": "no_flooding", "validTime": "2026-07-17T16:15:00Z"}, "forecast": {"primary": 8.4, "primaryUnit": "ft", "secondary": 3.11, "secondaryUnit": "kcfs", "floodCategory": "minor", "validTime": "2026-07-18T05:00:00Z"}}}, {"lid": "JOCT2", "name": "Pedernales River at Johnson City", "latitude": 30.291666666667, "longitude": -98.399166666667, "status": {"observed": {"primary": 11.84, "primaryUnit": "ft", "secondary": 2.86, "secondaryUnit": "kcfs", "floodCategory": "no_flooding", "validTime": "2026-07-17T16:00:00Z"}, "forecast": {"primary": 11.6, "primaryUnit": "ft", "secondary": 2.22, "secondaryUnit": "kcfs", "floodCategory": "no_flooding", "validTime": "2026-07-17T17:00:00Z"}}}, {"lid": "KEMT2", "name": "Lampasas River near Kempner", "latitude": 31.0792, "longitude": -98.0164, "status": {"observed": {"primary": 1.32, "primaryUnit": "ft", "secondary": 0.0501, "secondaryUnit": "kcfs", "floodCategory": "no_flooding", "validTime": "2026-07-17T16:30:00Z"}, "forecast": {"primary": -999, "primaryUnit": "", "secondary": -999, "secondaryUnit": "", "floodCategory": "fcst_not_current", "validTime": "0001-01-01T00:00:00Z"}}}, {"lid": "KMST2", "name": "Lavaca River at Komensky", "latitude": 29.540833333333, "longitude": -97.037777777778, "status": {"observed": {"primary": -999, "primaryUnit": "", "secondary": -999, "secondaryUnit": "", "floodCategory": "obs_not_current", "validTime": "0001-01-01T00:00:00Z"}, "forecast": {"primary": -999, "primaryUnit": "", "secondary": -999, "secondaryUnit": "", "floodCategory": "fcst_not_current", "validTime": "0001-01-01T00:00:00Z"}}}, {"lid": "KNLT2", "name": "Sandy Creek near Kingsland", "latitude": 30.5575, "longitude": -98.471944444444, "status": {"observed": {"primary": 8.03, "primaryUnit": "ft", "secondary": 0.534, "secondaryUnit": "kcfs", "floodCategory": "action", "validTime": "2026-07-17T16:00:00Z"}, "forecast": {"primary": 8.1, "primaryUnit": "ft", "secondary": 0.579, "secondaryUnit": "kcfs", "floodCategory": "action", "validTime": "2026-07-17T17:00:00Z"}}}, {"lid": "KRRT2", "name": "Guadalupe River at Kerrville", "latitude": 30.053055555556, "longitude": -99.163055555556, "status": {"observed": {"primary": 5.66, "primaryUnit": "ft", "secondary": 4.67, "secondaryUnit": "kcfs", "floodCategory": "no_flooding", "validTime": "2026-07-17T16:20:00Z"}, "forecast": {"primary": 6.2, "primaryUnit": "ft", "secondary": 5.71, "secondaryUnit": "kcfs", "floodCategory": "no_flooding", "validTime": "2026-07-17T17:00:00Z"}}}, {"lid": "KWHT2", "name": "Hondo Creek at SH 173 near Hondo", "latitude": 29.376111111111, "longitude": -99.116666666667, "status": {"observed": {"primary": 5.37, "primaryUnit": "ft", "secondary": 0.479, "secondaryUnit": "kcfs", "floodCategory": "no_flooding", "validTime": "2026-07-17T16:00:00Z"}, "forecast": {"primary": 5.2, "primaryUnit": "ft", "secondary": 0.38, "secondaryUnit": "kcfs", "floodCategory": "no_flooding", "validTime": "2026-07-17T17:00:00Z"}}}, {"lid": "KYET2", "name": "Blanco River near Kyle", "latitude": 29.979166666667, "longitude": -97.909722222222, "status": {"observed": {"primary": 6.11, "primaryUnit": "ft", "secondary": 0.255, "secondaryUnit": "kcfs", "floodCategory": "not_defined", "validTime": "2026-07-17T16:30:00Z"}, "forecast": {"primary": -999, "primaryUnit": "", "secondary": -999, "secondaryUnit": "", "floodCategory": "fcst_not_current", "validTime": "0001-01-01T00:00:00Z"}}}, {"lid": "LACT2", "name": "Medina River near La Coste", "latitude": 29.32388888888889, "longitude": -98.81277777777778, "status": {"observed": {"primary": 8.55, "primaryUnit": "ft", "secondary": 0.335, "secondaryUnit": "kcfs", "floodCategory": "no_flooding", "validTime": "2026-07-17T15:45:00Z"}, "forecast": {"primary": -999, "primaryUnit": "", "secondary": -999, "secondaryUnit": "", "floodCategory": "fcst_not_current", "validTime": "0001-01-01T00:00:00Z"}}}, {"lid": "LBFT2", "name": "Little Blanco River at FM32 near Fischer", "latitude": 30.020806, "longitude": -98.330556, "status": {"observed": {"primary": 4.95, "primaryUnit": "ft", "secondary": 0.0069, "secondaryUnit": "kcfs", "floodCategory": "no_flooding", "validTime": "2026-07-17T16:30:00Z"}, "forecast": {"primary": -999, "primaryUnit": "", "secondary": -999, "secondaryUnit": "", "floodCategory": "fcst_not_current", "validTime": "0001-01-01T00:00:00Z"}}}, {"lid": "LCFT2", "name": "Leon Creek at I-10 and Loop 1604", "latitude": 29.593055555555555, "longitude": -98.59916666666666, "status": {"observed": {"primary": 984.99, "primaryUnit": "ft", "secondary": -999, "secondaryUnit": "kcfs", "floodCategory": "not_defined", "validTime": "2026-07-17T16:15:00Z"}, "forecast": {"primary": -999, "primaryUnit": "", "secondary": -999, "secondaryUnit": "", "floodCategory": "fcst_not_current", "validTime": "0001-01-01T00:00:00Z"}}}, {"lid": "LCKT2", "name": "Lost Creek at Lost Creek Blvd", "latitude": 30.273888888889, "longitude": -97.844444444444, "status": {"observed": {"primary": 2.45, "primaryUnit": "ft", "secondary": 0.0269, "secondaryUnit": "kcfs", "floodCategory": "not_defined", "validTime": "2026-07-17T16:30:00Z"}, "forecast": {"primary": -999, "primaryUnit": "", "secondary": -999, "secondaryUnit": "", "floodCategory": "fcst_not_current", "validTime": "0001-01-01T00:00:00Z"}}}, {"lid": "LCPT2", "name": "Plum Creek at Lockhart", "latitude": 29.922777777778, "longitude": -97.678888888889, "status": {"observed": {"primary": 5.61, "primaryUnit": "ft", "secondary": 0.252, "secondaryUnit": "kcfs", "floodCategory": "no_flooding", "validTime": "2026-07-17T16:00:00Z"}, "forecast": {"primary": -999, "primaryUnit": "", "secondary": -999, "secondaryUnit": "", "floodCategory": "fcst_not_current", "validTime": "0001-01-01T00:00:00Z"}}}, {"lid": "LECT2", "name": "Leon Creek at Loop 410 near Leon Valley", "latitude": 29.447777777778, "longitude": -98.633611111111, "status": {"observed": {"primary": 6.86, "primaryUnit": "ft", "secondary": 0.162, "secondaryUnit": "kcfs", "floodCategory": "not_defined", "validTime": "2026-07-17T16:15:00Z"}, "forecast": {"primary": -999, "primaryUnit": "", "secondary": -999, "secondaryUnit": "", "floodCategory": "fcst_not_current", "validTime": "0001-01-01T00:00:00Z"}}}, {"lid": "LHGT2", "name": "South Fork San Gabriel River at SH 1869 near Liberty Hill", "latitude": 30.66, "longitude": -97.9378, "status": {"observed": {"primary": 4.56, "primaryUnit": "ft", "secondary": -999, "secondaryUnit": "kcfs", "floodCategory": "not_defined", "validTime": "2026-07-17T16:20:00Z"}, "forecast": {"primary": -999, "primaryUnit": "", "secondary": -999, "secondaryUnit": "", "floodCategory": "fcst_not_current", "validTime": "0001-01-01T00:00:00Z"}}}, {"lid": "LKPT2", "name": "Lake Creek at Lake Creek Parkway near Cedar Park 5SE", "latitude": 30.465555555556, "longitude": -97.787777777778, "status": {"observed": {"primary": 2.68, "primaryUnit": "ft", "secondary": 0.0028, "secondaryUnit": "kcfs", "floodCategory": "not_defined", "validTime": "2026-07-17T16:20:00Z"}, "forecast": {"primary": -999, "primaryUnit": "", "secondary": -999, "secondaryUnit": "", "floodCategory": "fcst_not_current", "validTime": "0001-01-01T00:00:00Z"}}}, {"lid": "LKST2", "name": "Leon Creek at I-35S near San Antonio", "latitude": 29.329722222222, "longitude": -98.583888888889, "status": {"observed": {"primary": 6.37, "primaryUnit": "ft", "secondary": 0.455, "secondaryUnit": "kcfs", "floodCategory": "no_flooding", "validTime": "2026-07-17T16:15:00Z"}, "forecast": {"primary": -999, "primaryUnit": "", "secondary": -999, "secondaryUnit": "", "floodCategory": "fcst_not_current", "validTime": "0001-01-01T00:00:00Z"}}}, {"lid": "LLAT2", "name": "Llano River at Llano", "latitude": 30.751111111111, "longitude": -98.669444444444, "status": {"observed": {"primary": 16.65, "primaryUnit": "ft", "secondary": 54.1, "secondaryUnit": "kcfs", "floodCategory": "moderate", "validTime": "2026-07-17T16:00:00Z"}, "forecast": {"primary": 21.9, "primaryUnit": "ft", "secondary": 89.3, "secondaryUnit": "kcfs", "floodCategory": "moderate", "validTime": "2026-07-18T07:00:00Z"}}}, {"lid": "LLGT2", "name": "San Marcos River at Luling", "latitude": 29.666111111111, "longitude": -97.650555555556, "status": {"observed": {"primary": 5.72, "primaryUnit": "ft", "secondary": 0.491, "secondaryUnit": "kcfs", "floodCategory": "no_flooding", "validTime": "2026-07-17T15:45:00Z"}, "forecast": {"primary": -999, "primaryUnit": "", "secondary": -999, "secondaryUnit": "", "floodCategory": "fcst_not_current", "validTime": "0001-01-01T00:00:00Z"}}}, {"lid": "LNXT2", "name": "South Fork Guadalupe River at Lynx Haven Crossing near Hunt, TX", "latitude": 29.980181, "longitude": -99.4423, "status": {"observed": {"primary": 4.85, "primaryUnit": "ft", "secondary": -999, "secondaryUnit": "kcfs", "floodCategory": "not_defined", "validTime": "2026-07-17T16:20:00Z"}, "forecast": {"primary": -999, "primaryUnit": "", "secondary": -999, "secondaryUnit": "", "floodCategory": "fcst_not_current", "validTime": "0001-01-01T00:00:00Z"}}}, {"lid": "LRIT2", "name": "Little River near Little River", "latitude": 30.966388888889, "longitude": -97.345833333333, "status": {"observed": {"primary": 3.44, "primaryUnit": "ft", "secondary": 0.508, "secondaryUnit": "kcfs", "floodCategory": "no_flooding", "validTime": "2026-07-17T16:15:00Z"}, "forecast": {"primary": -999, "primaryUnit": "", "secondary": -999, "secondaryUnit": "", "floodCategory": "fcst_not_current", "validTime": "0001-01-01T00:00:00Z"}}}, {"lid": "LRTT2", "name": "Llano River at County Road 102", "latitude": 30.727222222222224, "longitude": -98.81444444444445, "status": {"observed": {"primary": 1082.24, "primaryUnit": "ft", "secondary": -999, "secondaryUnit": "kcfs", "floodCategory": "not_defined", "validTime": "2026-07-17T16:30:00Z"}, "forecast": {"primary": -999, "primaryUnit": "", "secondary": -999, "secondaryUnit": "", "floodCategory": "fcst_not_current", "validTime": "0001-01-01T00:00:00Z"}}}, {"lid": "LRUT2", "name": "Leona River at CR 429A near Uvalde", "latitude": 29.345277777778, "longitude": -99.748888888889, "status": {"observed": {"primary": 5.52, "primaryUnit": "ft", "secondary": 0.0465, "secondaryUnit": "kcfs", "floodCategory": "not_defined", "validTime": "2026-07-17T16:15:00Z"}, "forecast": {"primary": -999, "primaryUnit": "", "secondary": -999, "secondaryUnit": "", "floodCategory": "fcst_not_current", "validTime": "0001-01-01T00:00:00Z"}}}, {"lid": "LSPT2", "name": "Las Moras Creek at Brackettville", "latitude": 29.30791667, "longitude": -100.4192222, "status": {"observed": {"primary": 5.27, "primaryUnit": "ft", "secondary": 0.0844, "secondaryUnit": "kcfs", "floodCategory": "not_defined", "validTime": "2026-07-17T16:15:00Z"}, "forecast": {"primary": -999, "primaryUnit": "", "secondary": -999, "secondaryUnit": "", "floodCategory": "fcst_not_current", "validTime": "0001-01-01T00:00:00Z"}}}, {"lid": "LULT2", "name": "Plum Creek near Luling", "latitude": 29.6996, "longitude": -97.6036, "status": {"observed": {"primary": 8.1, "primaryUnit": "ft", "secondary": 0.563, "secondaryUnit": "kcfs", "floodCategory": "no_flooding", "validTime": "2026-07-17T16:00:00Z"}, "forecast": {"primary": -999, "primaryUnit": "", "secondary": -999, "secondaryUnit": "", "floodCategory": "fcst_not_current", "validTime": "0001-01-01T00:00:00Z"}}}, {"lid": "LWGT2", "name": "Little Walnut Creek (TX) at Georgian Drive near Austin 7N", "latitude": 30.354166666667, "longitude": -97.697777777778, "status": {"observed": {"primary": 0.51, "primaryUnit": "ft", "secondary": 0.0022, "secondaryUnit": "kcfs", "floodCategory": "not_defined", "validTime": "2026-07-17T16:30:00Z"}, "forecast": {"primary": -999, "primaryUnit": "", "secondary": -999, "secondaryUnit": "", "floodCategory": "fcst_not_current", "validTime": "0001-01-01T00:00:00Z"}}}, {"lid": "MBCT2", "name": "Beaver Creek (Llano River Basin) near Mason", "latitude": 30.6433333333333, "longitude": -99.0955555555555, "status": {"observed": {"primary": 8.6, "primaryUnit": "ft", "secondary": 0.535, "secondaryUnit": "kcfs", "floodCategory": "no_flooding", "validTime": "2026-07-17T16:30:00Z"}, "forecast": {"primary": 10.9, "primaryUnit": "ft", "secondary": 3.79, "secondaryUnit": "kcfs", "floodCategory": "no_flooding", "validTime": "2026-07-17T17:00:00Z"}}}, {"lid": "MDLT2", "name": "Medina River at Medina Lake", "latitude": 29.54, "longitude": -98.933611111111, "status": {"observed": {"primary": 1015.57, "primaryUnit": "ft", "secondary": 15.6, "secondaryUnit": "kcfs", "floodCategory": "no_flooding", "validTime": "2026-07-17T16:00:00Z"}, "forecast": {"primary": -999, "primaryUnit": "", "secondary": -999, "secondaryUnit": "", "floodCategory": "fcst_not_current", "validTime": "0001-01-01T00:00:00Z"}}}, {"lid": "MEPT2", "name": "Medina River above Engligh Crossing near Pipe Creek", "latitude": 29.694444444444443, "longitude": -98.97944444444444, "status": {"observed": {"primary": 10.57, "primaryUnit": "ft", "secondary": 2.66, "secondaryUnit": "kcfs", "floodCategory": "not_defined", "validTime": "2026-07-17T16:00:00Z"}, "forecast": {"primary": -999, "primaryUnit": "", "secondary": -999, "secondaryUnit": "", "floodCategory": "fcst_not_current", "validTime": "0001-01-01T00:00:00Z"}}}, {"lid": "MERT2", "name": "Medina River at Patterson Road at Medina", "latitude": 29.793888888889, "longitude": -99.248611111111, "status": {"observed": {"primary": 6.91, "primaryUnit": "ft", "secondary": 0.992, "secondaryUnit": "kcfs", "floodCategory": "not_defined", "validTime": "2026-07-17T16:25:00Z"}, "forecast": {"primary": -999, "primaryUnit": "", "secondary": -999, "secondaryUnit": "", "floodCategory": "fcst_not_current", "validTime": "0001-01-01T00:00:00Z"}}}, {"lid": "MFDT2", "name": "Colorado River (TX) at Lake Marble Falls", "latitude": 30.555833333333, "longitude": -98.257222222222, "status": {"observed": {"primary": 735.85, "primaryUnit": "ft", "secondary": -999, "secondaryUnit": "kcfs", "floodCategory": "not_defined", "validTime": "2026-07-17T16:00:00Z"}, "forecast": {"primary": -999, "primaryUnit": "", "secondary": -999, "secondaryUnit": "", "floodCategory": "fcst_not_current", "validTime": "0001-01-01T00:00:00Z"}}}, {"lid": "MFNT2", "name": "San Antonio River near McFaddin", "latitude": 28.531111111111, "longitude": -97.042777777778, "status": {"observed": {"primary": 20.1, "primaryUnit": "ft", "secondary": 1.32, "secondaryUnit": "kcfs", "floodCategory": "not_defined", "validTime": "2026-07-17T16:15:00Z"}, "forecast": {"primary": -999, "primaryUnit": "", "secondary": -999, "secondaryUnit": "", "floodCategory": "fcst_not_current", "validTime": "0001-01-01T00:00:00Z"}}}, {"lid": "MIOT2", "name": "Medio Creek near Beeville", "latitude": 28.482777777778, "longitude": -97.656388888889, "status": {"observed": {"primary": 3.91, "primaryUnit": "ft", "secondary": -999, "secondaryUnit": "kcfs", "floodCategory": "not_defined", "validTime": "2026-07-17T16:15:00Z"}, "forecast": {"primary": -999, "primaryUnit": "", "secondary": -999, "secondaryUnit": "", "floodCategory": "fcst_not_current", "validTime": "0001-01-01T00:00:00Z"}}}, {"lid": "MLRT2", "name": "Llano River near Mason", "latitude": 30.6605555555556, "longitude": -99.1088888888889, "status": {"observed": {"primary": 19.58, "primaryUnit": "ft", "secondary": 42.8, "secondaryUnit": "kcfs", "floodCategory": "minor", "validTime": "2026-07-17T16:30:00Z"}, "forecast": {"primary": 25.7, "primaryUnit": "ft", "secondary": 90.9, "secondaryUnit": "kcfs", "floodCategory": "moderate", "validTime": "2026-07-18T01:00:00Z"}}}, {"lid": "MMDT2", "name": "Medina River near Macdona", "latitude": 29.334722222222, "longitude": -98.689444444444, "status": {"observed": {"primary": 2.93, "primaryUnit": "ft", "secondary": 0.241, "secondaryUnit": "kcfs", "floodCategory": "not_defined", "validTime": "2026-07-17T16:15:00Z"}, "forecast": {"primary": -999, "primaryUnit": "", "secondary": -999, "secondaryUnit": "", "floodCategory": "fcst_not_current", "validTime": "0001-01-01T00:00:00Z"}}}, {"lid": "MNRT2", "name": "San Saba River at Menard", "latitude": 30.91906245, "longitude": -99.7856254, "status": {"observed": {"primary": 3.25, "primaryUnit": "ft", "secondary": 0.0823, "secondaryUnit": "kcfs", "floodCategory": "no_flooding", "validTime": "2026-07-17T16:20:00Z"}, "forecast": {"primary": 11.9, "primaryUnit": "ft", "secondary": 9.89, "secondaryUnit": "kcfs", "floodCategory": "action", "validTime": "2026-07-18T06:00:00Z"}}}, {"lid": "MSDT2", "name": "Colorado River (TX) at Lake Travis", "latitude": 30.3915902, "longitude": -97.9069554, "status": {"observed": {"primary": 678.79, "primaryUnit": "ft", "secondary": 48.8, "secondaryUnit": "kcfs", "floodCategory": "no_flooding", "validTime": "2026-07-17T16:00:00Z"}, "forecast": {"primary": -999, "primaryUnit": "", "secondary": -999, "secondaryUnit": "", "floodCategory": "fcst_not_current", "validTime": "0001-01-01T00:00:00Z"}}}, {"lid": "MTBT2", "name": "Nueces River at Mathis", "latitude": 28.038055555556, "longitude": -97.86, "status": {"observed": {"primary": 0.99, "primaryUnit": "ft", "secondary": 0.1, "secondaryUnit": "kcfs", "floodCategory": "no_flooding", "validTime": "2026-07-17T16:00:00Z"}, "forecast": {"primary": -999, "primaryUnit": "", "secondary": -999, "secondaryUnit": "", "floodCategory": "fcst_not_current", "validTime": "0001-01-01T00:00:00Z"}}}, {"lid": "MTHT2", "name": "Nueces River at Lake Corpus Christi", "latitude": 28.038055555556, "longitude": -97.870833333333, "status": {"observed": {"primary": 83.17, "primaryUnit": "ft", "secondary": 23.2, "secondaryUnit": "kcfs", "floodCategory": "not_defined", "validTime": "2026-07-17T16:00:00Z"}, "forecast": {"primary": -999, "primaryUnit": "", "secondary": -999, "secondaryUnit": "", "floodCategory": "fcst_not_current", "validTime": "0001-01-01T00:00:00Z"}}}, {"lid": "MTST2", "name": "San Antonio River at Mitchell Street", "latitude": 29.392777777778, "longitude": -98.494444444444, "status": {"observed": {"primary": 4.42, "primaryUnit": "ft", "secondary": 0.0223, "secondaryUnit": "kcfs", "floodCategory": "no_flooding", "validTime": "2026-07-17T16:30:00Z"}, "forecast": {"primary": -999, "primaryUnit": "", "secondary": -999, "secondaryUnit": "", "floodCategory": "fcst_not_current", "validTime": "0001-01-01T00:00:00Z"}}}, {"lid": "MYAT2", "name": "Atascosa River near McCoy", "latitude": 28.864722222222, "longitude": -98.338055555556, "status": {"observed": {"primary": 5.49, "primaryUnit": "ft", "secondary": 0.0016, "secondaryUnit": "kcfs", "floodCategory": "not_defined", "validTime": "2026-07-17T16:15:00Z"}, "forecast": {"primary": -999, "primaryUnit": "", "secondary": -999, "secondaryUnit": "", "floodCategory": "fcst_not_current", "validTime": "0001-01-01T00:00:00Z"}}}, {"lid": "NBCT2", "name": "Comal River at New Braunfels", "latitude": 29.705833333333, "longitude": -98.122222222222, "status": {"observed": {"primary": 4.1, "primaryUnit": "ft", "secondary": 0.275, "secondaryUnit": "kcfs", "floodCategory": "no_flooding", "validTime": "2026-07-17T15:45:00Z"}, "forecast": {"primary": 4.2, "primaryUnit": "ft", "secondary": 0.31, "secondaryUnit": "kcfs", "floodCategory": "no_flooding", "validTime": "2026-07-17T17:00:00Z"}}}, {"lid": "NBDT2", "name": "Dry Comal at Loop 337", "latitude": 29.688055555556, "longitude": -98.154722222222, "status": {"observed": {"primary": 6.76, "primaryUnit": "ft", "secondary": 0.0388, "secondaryUnit": "kcfs", "floodCategory": "not_defined", "validTime": "2026-07-17T16:00:00Z"}, "forecast": {"primary": -999, "primaryUnit": "", "secondary": -999, "secondaryUnit": "", "floodCategory": "fcst_not_current", "validTime": "0001-01-01T00:00:00Z"}}}, {"lid": "NBRT2", "name": "Guadalupe River above Comal River at New Braunfels", "latitude": 29.714722222222, "longitude": -98.109722222222, "status": {"observed": {"primary": 2.3, "primaryUnit": "ft", "secondary": 0.288, "secondaryUnit": "kcfs", "floodCategory": "no_flooding", "validTime": "2026-07-17T16:30:00Z"}, "forecast": {"primary": 2.3, "primaryUnit": "ft", "secondary": 0.288, "secondaryUnit": "kcfs", "floodCategory": "no_flooding", "validTime": "2026-07-17T17:00:00Z"}}}, {"lid": "NFBT2", "name": "North Fork San Gabriel River at 243 near Briggs, TX", "latitude": 30.8139, "longitude": -97.9658, "status": {"observed": {"primary": 5.89, "primaryUnit": "ft", "secondary": -999, "secondaryUnit": "kcfs", "floodCategory": "not_defined", "validTime": "2026-07-17T16:30:00Z"}, "forecast": {"primary": -999, "primaryUnit": "", "secondary": -999, "secondaryUnit": "", "floodCategory": "fcst_not_current", "validTime": "0001-01-01T00:00:00Z"}}}, {"lid": "NMOT2", "name": "Nueces River at CR 414 near Montell", "latitude": 29.52638888888889, "longitude": -100.01833333333333, "status": {"observed": {"primary": -999, "primaryUnit": "", "secondary": -999, "secondaryUnit": "", "floodCategory": "obs_not_current", "validTime": "0001-01-01T00:00:00Z"}, "forecast": {"primary": -999, "primaryUnit": "", "secondary": -999, "secondaryUnit": "", "floodCategory": "fcst_not_current", "validTime": "0001-01-01T00:00:00Z"}}}, {"lid": "NPBT2", "name": "North Prong Medina River at Brewington Creek", "latitude": 29.87527777777778, "longitude": -99.34861111111111, "status": {"observed": {"primary": 6.22, "primaryUnit": "ft", "secondary": -999, "secondaryUnit": "kcfs", "floodCategory": "not_defined", "validTime": "2026-07-17T16:30:00Z"}, "forecast": {"primary": -999, "primaryUnit": "", "secondary": -999, "secondaryUnit": "", "floodCategory": "fcst_not_current", "validTime": "0001-01-01T00:00:00Z"}}}, {"lid": "NUBT2", "name": "Nueces River near Barksdale", "latitude": 29.71883333, "longitude": -100.039575, "status": {"observed": {"primary": 20.89, "primaryUnit": "ft", "secondary": 8.34, "secondaryUnit": "kcfs", "floodCategory": "not_defined", "validTime": "2026-07-17T16:30:00Z"}, "forecast": {"primary": -999, "primaryUnit": "", "secondary": -999, "secondaryUnit": "", "floodCategory": "fcst_not_current", "validTime": "0001-01-01T00:00:00Z"}}}, {"lid": "NUCT2", "name": "Nueces River at FM 1025 Near Crystal City", "latitude": 28.775614, "longitude": -99.835911, "status": {"observed": {"primary": 37.01, "primaryUnit": "ft", "secondary": -999, "secondaryUnit": "kcfs", "floodCategory": "not_defined", "validTime": "2026-07-17T15:30:00Z"}, "forecast": {"primary": -999, "primaryUnit": "", "secondary": -999, "secondaryUnit": "", "floodCategory": "fcst_not_current", "validTime": "0001-01-01T00:00:00Z"}}}, {"lid": "OHBT2", "name": "Barton Creek above Hwy 71 near Oak Hill", "latitude": 30.296111111111, "longitude": -97.925277777778, "status": {"observed": {"primary": 2.8, "primaryUnit": "ft", "secondary": 0.018, "secondaryUnit": "kcfs", "floodCategory": "no_flooding", "validTime": "2026-07-17T16:20:00Z"}, "forecast": {"primary": -999, "primaryUnit": "", "secondary": -999, "secondaryUnit": "", "floodCategory": "fcst_not_current", "validTime": "0001-01-01T00:00:00Z"}}}, {"lid": "ONIT2", "name": "Onion Creek at Twin Creeks near Manchaca", "latitude": 30.126111111111, "longitude": -97.820833333333, "status": {"observed": {"primary": 5.22, "primaryUnit": "ft", "secondary": 0.0361, "secondaryUnit": "kcfs", "floodCategory": "not_defined", "validTime": "2026-07-17T16:00:00Z"}, "forecast": {"primary": -999, "primaryUnit": "", "secondary": -999, "secondaryUnit": "", "floodCategory": "fcst_not_current", "validTime": "0001-01-01T00:00:00Z"}}}, {"lid": "ORBT2", "name": "West Bouldin Creek above Oltorf Road at Austin", "latitude": 30.246666666667, "longitude": -97.769166666667, "status": {"observed": {"primary": 1.75, "primaryUnit": "ft", "secondary": -999, "secondaryUnit": "kcfs", "floodCategory": "not_defined", "validTime": "2026-07-17T16:20:00Z"}, "forecast": {"primary": -999, "primaryUnit": "", "secondary": -999, "secondaryUnit": "", "floodCategory": "fcst_not_current", "validTime": "0001-01-01T00:00:00Z"}}}, {"lid": "OXDT2", "name": "Sandy Creek near Willow City", "latitude": 30.5528, "longitude": -98.7013, "status": {"observed": {"primary": 3.81, "primaryUnit": "ft", "secondary": 0.155, "secondaryUnit": "kcfs", "floodCategory": "no_flooding", "validTime": "2026-07-17T16:00:00Z"}, "forecast": {"primary": -999, "primaryUnit": "", "secondary": -999, "secondaryUnit": "", "floodCategory": "fcst_not_current", "validTime": "0001-01-01T00:00:00Z"}}}, {"lid": "PEDT2", "name": "Perdido Creek near Fannin", "latitude": 28.751388888889, "longitude": -97.316944444444, "status": {"observed": {"primary": 2.71, "primaryUnit": "ft", "secondary": -999, "secondaryUnit": "kcfs", "floodCategory": "not_defined", "validTime": "2026-07-17T16:15:00Z"}, "forecast": {"primary": -999, "primaryUnit": "", "secondary": -999, "secondaryUnit": "", "floodCategory": "fcst_not_current", "validTime": "0001-01-01T00:00:00Z"}}}, {"lid": "PEWT2", "name": "Peach Creek at Hwy 90 near Waelder", "latitude": 29.685555555555556, "longitude": -97.23055555555555, "status": {"observed": {"primary": 3.32, "primaryUnit": "ft", "secondary": 0, "secondaryUnit": "kcfs", "floodCategory": "not_defined", "validTime": "2026-07-17T15:30:00Z"}, "forecast": {"primary": -999, "primaryUnit": "", "secondary": -999, "secondaryUnit": "", "floodCategory": "fcst_not_current", "validTime": "0001-01-01T00:00:00Z"}}}, {"lid": "PPDT2", "name": "Pinto Creek near Del Rio 17SE", "latitude": 29.145833333333, "longitude": -100.71805555556, "status": {"observed": {"primary": 4.57, "primaryUnit": "ft", "secondary": 0.952, "secondaryUnit": "kcfs", "floodCategory": "not_defined", "validTime": "2026-07-17T16:15:00Z"}, "forecast": {"primary": -999, "primaryUnit": "", "secondary": -999, "secondaryUnit": "", "floodCategory": "fcst_not_current", "validTime": "0001-01-01T00:00:00Z"}}}, {"lid": "PWCT2", "name": "Pedernales River at LBJ Ranch Near Stonewall", "latitude": 30.2411, "longitude": -98.6253, "status": {"observed": {"primary": 14.09, "primaryUnit": "ft", "secondary": -999, "secondaryUnit": "kcfs", "floodCategory": "not_defined", "validTime": "2026-07-17T16:00:00Z"}, "forecast": {"primary": -999, "primaryUnit": "", "secondary": -999, "secondaryUnit": "", "floodCategory": "fcst_not_current", "validTime": "0001-01-01T00:00:00Z"}}}, {"lid": "RBFT2", "name": "Red Bluff Creek at FM 1283 near Pipe Creek", "latitude": 29.673, "longitude": -98.96, "status": {"observed": {"primary": -999, "primaryUnit": "", "secondary": -999, "secondaryUnit": "", "floodCategory": "out_of_service", "validTime": "0001-01-01T00:00:00Z"}, "forecast": {"primary": -999, "primaryUnit": "", "secondary": -999, "secondaryUnit": "", "floodCategory": "out_of_service", "validTime": "0001-01-01T00:00:00Z"}}}, {"lid": "RCCT2", "name": "Copano Creek near Refugio", "latitude": 28.303333333333, "longitude": -97.112222222222, "status": {"observed": {"primary": 4.64, "primaryUnit": "ft", "secondary": 0.0232, "secondaryUnit": "kcfs", "floodCategory": "no_flooding", "validTime": "2026-07-17T15:30:00Z"}, "forecast": {"primary": -999, "primaryUnit": "", "secondary": -999, "secondaryUnit": "", "floodCategory": "fcst_not_current", "validTime": "0001-01-01T00:00:00Z"}}}, {"lid": "RCPT2", "name": "Tide Gauge at Rockport", "latitude": 28.024166666666666, "longitude": -97.04805555555555, "status": {"observed": {"primary": 0.41, "primaryUnit": "ft", "secondary": -999, "secondaryUnit": "kcfs", "floodCategory": "no_flooding", "validTime": "2026-07-17T16:24:00Z"}, "forecast": {"primary": -0.15, "primaryUnit": "ft", "secondary": -999, "secondaryUnit": "kcfs", "floodCategory": "fcst_not_current", "validTime": "2026-07-18T00:00:00Z"}}}, {"lid": "REFT2", "name": "Mission River at Refugio", "latitude": 28.291666666667, "longitude": -97.278888888889, "status": {"observed": {"primary": 2.18, "primaryUnit": "ft", "secondary": 0.0217, "secondaryUnit": "kcfs", "floodCategory": "no_flooding", "validTime": "2026-07-17T16:00:00Z"}, "forecast": {"primary": -999, "primaryUnit": "", "secondary": -999, "secondaryUnit": "", "floodCategory": "fcst_not_current", "validTime": "0001-01-01T00:00:00Z"}}}, {"lid": "RLRT2", "name": "Little River near Rockdale", "latitude": 30.760555555556, "longitude": -97.013611111111, "status": {"observed": {"primary": 7.66, "primaryUnit": "ft", "secondary": 1.71, "secondaryUnit": "kcfs", "floodCategory": "no_flooding", "validTime": "2026-07-17T16:15:00Z"}, "forecast": {"primary": -999, "primaryUnit": "", "secondary": -999, "secondaryUnit": "", "floodCategory": "fcst_not_current", "validTime": "0001-01-01T00:00:00Z"}}}, {"lid": "RWDT2", "name": "Dry Frio River near Reagan Wells near Uvalde 23N", "latitude": 29.504444444444, "longitude": -99.781111111111, "status": {"observed": {"primary": -999, "primaryUnit": "", "secondary": -999, "secondaryUnit": "", "floodCategory": "obs_not_current", "validTime": "0001-01-01T00:00:00Z"}, "forecast": {"primary": -999, "primaryUnit": "", "secondary": -999, "secondaryUnit": "", "floodCategory": "fcst_not_current", "validTime": "0001-01-01T00:00:00Z"}}}, {"lid": "SAAT2", "name": "Medina River at San Antonio US 281S", "latitude": 29.263888888889, "longitude": -98.490555555556, "status": {"observed": {"primary": 6.81, "primaryUnit": "ft", "secondary": 0.914, "secondaryUnit": "kcfs", "floodCategory": "no_flooding", "validTime": "2026-07-17T16:15:00Z"}, "forecast": {"primary": 7.8, "primaryUnit": "ft", "secondary": 1.21, "secondaryUnit": "kcfs", "floodCategory": "no_flooding", "validTime": "2026-07-17T21:00:00Z"}}}, {"lid": "SABT2", "name": "Sabinal River at Sabinal", "latitude": 29.314166666667, "longitude": -99.480555555556, "status": {"observed": {"primary": 9.74, "primaryUnit": "ft", "secondary": 1.7, "secondaryUnit": "kcfs", "floodCategory": "no_flooding", "validTime": "2026-07-17T15:30:00Z"}, "forecast": {"primary": 9.3, "primaryUnit": "ft", "secondary": 1.44, "secondaryUnit": "kcfs", "floodCategory": "no_flooding", "validTime": "2026-07-17T17:00:00Z"}}}, {"lid": "SACT2", "name": "Salado Creek at Loop 13", "latitude": 29.356944444444, "longitude": -98.4125, "status": {"observed": {"primary": 5.89, "primaryUnit": "ft", "secondary": 0.0558, "secondaryUnit": "kcfs", "floodCategory": "no_flooding", "validTime": "2026-07-17T16:15:00Z"}, "forecast": {"primary": -999, "primaryUnit": "", "secondary": -999, "secondaryUnit": "", "floodCategory": "fcst_not_current", "validTime": "0001-01-01T00:00:00Z"}}}, {"lid": "SAFT2", "name": "San Pedro Creek at Furnish Street", "latitude": 29.406111111111112, "longitude": -98.51055555555556, "status": {"observed": {"primary": 2.75, "primaryUnit": "ft", "secondary": 0.0307, "secondaryUnit": "kcfs", "floodCategory": "not_defined", "validTime": "2026-07-17T16:00:00Z"}, "forecast": {"primary": -999, "primaryUnit": "", "secondary": -999, "secondaryUnit": "", "floodCategory": "fcst_not_current", "validTime": "0001-01-01T00:00:00Z"}}}, {"lid": "SALT2", "name": "Sabinal River near Sabinal", "latitude": 29.490833333333, "longitude": -99.4925, "status": {"observed": {"primary": 7.02, "primaryUnit": "ft", "secondary": 1.4, "secondaryUnit": "kcfs", "floodCategory": "not_defined", "validTime": "2026-07-17T16:30:00Z"}, "forecast": {"primary": -999, "primaryUnit": "", "secondary": -999, "secondaryUnit": "", "floodCategory": "fcst_not_current", "validTime": "0001-01-01T00:00:00Z"}}}, {"lid": "SBUT2", "name": "Sabinal River at Utopia", "latitude": 29.612222, "longitude": -99.529444, "status": {"observed": {"primary": 5.52, "primaryUnit": "ft", "secondary": -999, "secondaryUnit": "kcfs", "floodCategory": "not_defined", "validTime": "2026-07-17T16:20:00Z"}, "forecast": {"primary": -999, "primaryUnit": "", "secondary": -999, "secondaryUnit": "", "floodCategory": "fcst_not_current", "validTime": "0001-01-01T00:00:00Z"}}}, {"lid": "SCAT2", "name": "Slaughter Creek at FM 1826 near Austin ", "latitude": 30.208888888889, "longitude": -97.90305555555555, "status": {"observed": {"primary": 3.28, "primaryUnit": "ft", "secondary": -999, "secondaryUnit": "kcfs", "floodCategory": "no_flooding", "validTime": "2026-07-17T16:30:00Z"}, "forecast": {"primary": -999, "primaryUnit": "", "secondary": -999, "secondaryUnit": "", "floodCategory": "fcst_not_current", "validTime": "0001-01-01T00:00:00Z"}}}, {"lid": "SCDT2", "name": "Coleto Creek at Arnold Road Crossing", "latitude": 28.861388888889, "longitude": -97.226111111111, "status": {"observed": {"primary": 3.69, "primaryUnit": "ft", "secondary": -999, "secondaryUnit": "kcfs", "floodCategory": "no_flooding", "validTime": "2026-07-17T15:45:00Z"}, "forecast": {"primary": 3.7, "primaryUnit": "ft", "secondary": -999, "secondaryUnit": "kcfs", "floodCategory": "no_flooding", "validTime": "2026-07-17T18:00:00Z"}}}, {"lid": "SCGT2", "name": "Sandies Creek at FM 108 near Smiley", "latitude": 29.291755555555557, "longitude": -97.62075555555556, "status": {"observed": {"primary": 5.89, "primaryUnit": "ft", "secondary": -999, "secondaryUnit": "kcfs", "floodCategory": "not_defined", "validTime": "2026-07-17T16:00:00Z"}, "forecast": {"primary": -999, "primaryUnit": "", "secondary": -999, "secondaryUnit": "", "floodCategory": "fcst_not_current", "validTime": "0001-01-01T00:00:00Z"}}}, {"lid": "SCRT2", "name": "Seco Creek at Rowe Ranch near D'Hanis", "latitude": 29.370555555556, "longitude": -99.2875, "status": {"observed": {"primary": 9.09, "primaryUnit": "ft", "secondary": 0.287, "secondaryUnit": "kcfs", "floodCategory": "no_flooding", "validTime": "2026-07-17T16:15:00Z"}, "forecast": {"primary": 9.2, "primaryUnit": "ft", "secondary": 0.332, "secondaryUnit": "kcfs", "floodCategory": "no_flooding", "validTime": "2026-07-17T17:00:00Z"}}}, {"lid": "SEGT2", "name": "Guadalupe River at Seguin", "latitude": 29.551944444444, "longitude": -97.969722222222, "status": {"observed": {"primary": -0.38, "primaryUnit": "ft", "secondary": -999, "secondaryUnit": "kcfs", "floodCategory": "no_flooding", "validTime": "2026-07-17T16:15:00Z"}, "forecast": {"primary": -999, "primaryUnit": "", "secondary": -999, "secondaryUnit": "", "floodCategory": "fcst_not_current", "validTime": "0001-01-01T00:00:00Z"}}}, {"lid": "SELT2", "name": "Cibolo Creek at Selma", "latitude": 29.593888888889, "longitude": -98.310833333333, "status": {"observed": {"primary": 6.11, "primaryUnit": "ft", "secondary": 1.32, "secondaryUnit": "kcfs", "floodCategory": "no_flooding", "validTime": "2026-07-17T16:00:00Z"}, "forecast": {"primary": 7.6, "primaryUnit": "ft", "secondary": 3.04, "secondaryUnit": "kcfs", "floodCategory": "no_flooding", "validTime": "2026-07-17T19:00:00Z"}}}, {"lid": "SFCT2", "name": "San Felipe Creek near Del Rio 1SE", "latitude": 29.330555555556, "longitude": -100.88888888889, "status": {"observed": {"primary": 5.02, "primaryUnit": "ft", "secondary": 0.144, "secondaryUnit": "kcfs", "floodCategory": "not_defined", "validTime": "2026-07-17T16:15:00Z"}, "forecast": {"primary": -999, "primaryUnit": "", "secondary": -999, "secondaryUnit": "", "floodCategory": "fcst_not_current", "validTime": "0001-01-01T00:00:00Z"}}}, {"lid": "SGGT2", "name": "Guadalupe River at FM 1117 near Seguin", "latitude": 29.536111111111, "longitude": -97.880833333333, "status": {"observed": {"primary": 12.59, "primaryUnit": "ft", "secondary": 0.764, "secondaryUnit": "kcfs", "floodCategory": "not_defined", "validTime": "2026-07-17T16:15:00Z"}, "forecast": {"primary": -999, "primaryUnit": "", "secondary": -999, "secondaryUnit": "", "floodCategory": "fcst_not_current", "validTime": "0001-01-01T00:00:00Z"}}}, {"lid": "SGHT2", "name": "San Geronimo Creek near Helotes, TX", "latitude": 29.619722222222, "longitude": -98.795, "status": {"observed": {"primary": 3.77, "primaryUnit": "ft", "secondary": 0.214, "secondaryUnit": "kcfs", "floodCategory": "not_defined", "validTime": "2026-07-17T16:30:00Z"}, "forecast": {"primary": -999, "primaryUnit": "", "secondary": -999, "secondaryUnit": "", "floodCategory": "fcst_not_current", "validTime": "0001-01-01T00:00:00Z"}}}, {"lid": "SIOT2", "name": "Olmos Creek at Dresden Drive", "latitude": 29.498888888889, "longitude": -98.51, "status": {"observed": {"primary": 1.98, "primaryUnit": "ft", "secondary": 0.0019, "secondaryUnit": "kcfs", "floodCategory": "no_flooding", "validTime": "2026-07-17T15:45:00Z"}, "forecast": {"primary": -999, "primaryUnit": "", "secondary": -999, "secondaryUnit": "", "floodCategory": "fcst_not_current", "validTime": "0001-01-01T00:00:00Z"}}}, {"lid": "SKMT2", "name": "Aransas River near Skidmore", "latitude": 28.282222222222, "longitude": -97.620555555556, "status": {"observed": {"primary": 0.48, "primaryUnit": "ft", "secondary": -999, "secondaryUnit": "kcfs", "floodCategory": "no_flooding", "validTime": "2026-07-17T16:15:00Z"}, "forecast": {"primary": -999, "primaryUnit": "", "secondary": -999, "secondaryUnit": "", "floodCategory": "fcst_not_current", "validTime": "0001-01-01T00:00:00Z"}}}, {"lid": "SLHT2", "name": "Slaughter Creek at FM 2304 near Manchaca 2NNE", "latitude": 30.161944444444, "longitude": -97.831944444444, "status": {"observed": {"primary": 0.92, "primaryUnit": "ft", "secondary": 0.0012, "secondaryUnit": "kcfs", "floodCategory": "not_defined", "validTime": "2026-07-17T16:05:00Z"}, "forecast": {"primary": -999, "primaryUnit": "", "secondary": -999, "secondaryUnit": "", "floodCategory": "fcst_not_current", "validTime": "0001-01-01T00:00:00Z"}}}, {"lid": "SMCT2", "name": "Guadalupe River at Canyon Lake", "latitude": 29.868611111111, "longitude": -98.198611111111, "status": {"observed": {"primary": 902.61, "primaryUnit": "ft", "secondary": -999, "secondaryUnit": "kcfs", "floodCategory": "no_flooding", "validTime": "2026-07-17T16:15:00Z"}, "forecast": {"primary": -999, "primaryUnit": "", "secondary": -999, "secondaryUnit": "", "floodCategory": "fcst_not_current", "validTime": "0001-01-01T00:00:00Z"}}}, {"lid": "SMIT2", "name": "Colorado River (TX) near Smithville", "latitude": 30.0125, "longitude": -97.161666666667, "status": {"observed": {"primary": 2.65, "primaryUnit": "ft", "secondary": 1.28, "secondaryUnit": "kcfs", "floodCategory": "no_flooding", "validTime": "2026-07-17T16:10:00Z"}, "forecast": {"primary": 2.7, "primaryUnit": "ft", "secondary": 1.33, "secondaryUnit": "kcfs", "floodCategory": "no_flooding", "validTime": "2026-07-17T17:00:00Z"}}}, {"lid": "SMMT2", "name": "Medina River near Somerset", "latitude": 29.261944, "longitude": -98.581111, "status": {"observed": {"primary": 6.75, "primaryUnit": "ft", "secondary": 0.295, "secondaryUnit": "kcfs", "floodCategory": "no_flooding", "validTime": "2026-07-17T15:45:00Z"}, "forecast": {"primary": 7.1, "primaryUnit": "ft", "secondary": 0.347, "secondaryUnit": "kcfs", "floodCategory": "no_flooding", "validTime": "2026-07-17T17:00:00Z"}}}, {"lid": "SMRT2", "name": "San Marcos River near Martindale", "latitude": 29.832222222222, "longitude": -97.842222222222, "status": {"observed": {"primary": 7.78, "primaryUnit": "ft", "secondary": 0.194, "secondaryUnit": "kcfs", "floodCategory": "not_defined", "validTime": "2026-07-17T15:45:00Z"}, "forecast": {"primary": -999, "primaryUnit": "", "secondary": -999, "secondaryUnit": "", "floodCategory": "fcst_not_current", "validTime": "0001-01-01T00:00:00Z"}}}, {"lid": "SNPT2", "name": "San Antonio River at Loop 410", "latitude": 29.321944444444, "longitude": -98.45, "status": {"observed": {"primary": 4.17, "primaryUnit": "ft", "secondary": 0.0699, "secondaryUnit": "kcfs", "floodCategory": "no_flooding", "validTime": "2026-07-17T16:15:00Z"}, "forecast": {"primary": -999, "primaryUnit": "", "secondary": -999, "secondaryUnit": "", "floodCategory": "fcst_not_current", "validTime": "0001-01-01T00:00:00Z"}}}, {"lid": "SRGT2", "name": "Guadalupe River near Spring Branch", "latitude": 29.860277777778, "longitude": -98.383333333333, "status": {"observed": {"primary": 24.22, "primaryUnit": "ft", "secondary": 29.2, "secondaryUnit": "kcfs", "floodCategory": "no_flooding", "validTime": "2026-07-17T16:00:00Z"}, "forecast": {"primary": 19, "primaryUnit": "ft", "secondary": 18.5, "secondaryUnit": "kcfs", "floodCategory": "no_flooding", "validTime": "2026-07-17T17:00:00Z"}}}, {"lid": "SRMT2", "name": "Sabinal River below Mill Creek near Vanderpool", "latitude": 29.718888888889, "longitude": -99.548611111111, "status": {"observed": {"primary": 2.79, "primaryUnit": "ft", "secondary": 0.35, "secondaryUnit": "kcfs", "floodCategory": "not_defined", "validTime": "2026-07-17T16:30:00Z"}, "forecast": {"primary": -999, "primaryUnit": "", "secondary": -999, "secondaryUnit": "", "floodCategory": "fcst_not_current", "validTime": "0001-01-01T00:00:00Z"}}}, {"lid": "SRRT2", "name": "San Antonio River at SH 72 near Runge", "latitude": 28.848611111111, "longitude": -97.736944444444, "status": {"observed": {"primary": 24.25, "primaryUnit": "ft", "secondary": 5.67, "secondaryUnit": "kcfs", "floodCategory": "action", "validTime": "2026-07-17T16:15:00Z"}, "forecast": {"primary": 32.6, "primaryUnit": "ft", "secondary": 10.8, "secondaryUnit": "kcfs", "floodCategory": "moderate", "validTime": "2026-07-19T18:00:00Z"}}}, {"lid": "SRUT2", "name": "San Marcos River at San Marcos", "latitude": 29.888888888889, "longitude": -97.933888888889, "status": {"observed": {"primary": 4.07, "primaryUnit": "ft", "secondary": 0.112, "secondaryUnit": "kcfs", "floodCategory": "not_defined", "validTime": "2026-07-17T15:45:00Z"}, "forecast": {"primary": -999, "primaryUnit": "", "secondary": -999, "secondaryUnit": "", "floodCategory": "fcst_not_current", "validTime": "0001-01-01T00:00:00Z"}}}, {"lid": "SSCT2", "name": "Salado Creek at NE Loop 410", "latitude": 29.515833333333, "longitude": -98.430833333333, "status": {"observed": {"primary": -999, "primaryUnit": "", "secondary": -999, "secondaryUnit": "", "floodCategory": "out_of_service", "validTime": "0001-01-01T00:00:00Z"}, "forecast": {"primary": -999, "primaryUnit": "", "secondary": -999, "secondaryUnit": "", "floodCategory": "out_of_service", "validTime": "0001-01-01T00:00:00Z"}}}, {"lid": "SSMT2", "name": "Seco Creek at Miller Ranch near Utopia", "latitude": 29.573055555556, "longitude": -99.402777777778, "status": {"observed": {"primary": 1.72, "primaryUnit": "ft", "secondary": 0.141, "secondaryUnit": "kcfs", "floodCategory": "no_flooding", "validTime": "2026-07-17T16:00:00Z"}, "forecast": {"primary": -999, "primaryUnit": "", "secondary": -999, "secondaryUnit": "", "floodCategory": "fcst_not_current", "validTime": "0001-01-01T00:00:00Z"}}}, {"lid": "STIT2", "name": "North Texas Lakes at Stillhouse Hollow Lake", "latitude": 31.022222222222, "longitude": -97.5325, "status": {"observed": {"primary": 623.41, "primaryUnit": "ft", "secondary": -999, "secondaryUnit": "kcfs", "floodCategory": "not_defined", "validTime": "2026-07-17T16:00:00Z"}, "forecast": {"primary": -999, "primaryUnit": "", "secondary": -999, "secondaryUnit": "", "floodCategory": "fcst_not_current", "validTime": "0001-01-01T00:00:00Z"}}}, {"lid": "STLT2", "name": "Guadalupe River at Sattler", "latitude": 29.858888888889, "longitude": -98.179722222222, "status": {"observed": {"primary": 4.41, "primaryUnit": "ft", "secondary": 0.0966, "secondaryUnit": "kcfs", "floodCategory": "no_flooding", "validTime": "2026-07-17T16:20:00Z"}, "forecast": {"primary": 4.4, "primaryUnit": "ft", "secondary": 0.095, "secondaryUnit": "kcfs", "floodCategory": "no_flooding", "validTime": "2026-07-17T18:00:00Z"}}}, {"lid": "SUPT2", "name": "Cibolo Creek at Sutherland Springs", "latitude": 29.279722222222, "longitude": -98.053333333333, "status": {"observed": {"primary": 31.21, "primaryUnit": "ft", "secondary": 10.1, "secondaryUnit": "kcfs", "floodCategory": "moderate", "validTime": "2026-07-17T16:15:00Z"}, "forecast": {"primary": 32.2, "primaryUnit": "ft", "secondary": 10.9, "secondaryUnit": "kcfs", "floodCategory": "moderate", "validTime": "2026-07-17T17:00:00Z"}}}, {"lid": "SYCT2", "name": "Sycamore Creek near Del Rio 12SE", "latitude": 29.24, "longitude": -100.76583333333, "status": {"observed": {"primary": 4.47, "primaryUnit": "ft", "secondary": 1.08, "secondaryUnit": "kcfs", "floodCategory": "not_defined", "validTime": "2026-07-17T16:15:00Z"}, "forecast": {"primary": -999, "primaryUnit": "", "secondary": -999, "secondaryUnit": "", "floodCategory": "fcst_not_current", "validTime": "0001-01-01T00:00:00Z"}}}, {"lid": "THET2", "name": "Nueces River near Three Rivers", "latitude": 28.427222222222, "longitude": -98.177777777778, "status": {"observed": {"primary": 1.32, "primaryUnit": "ft", "secondary": 0.0251, "secondaryUnit": "kcfs", "floodCategory": "no_flooding", "validTime": "2026-07-17T16:15:00Z"}, "forecast": {"primary": -999, "primaryUnit": "", "secondary": -999, "secondaryUnit": "", "floodCategory": "fcst_not_current", "validTime": "0001-01-01T00:00:00Z"}}}, {"lid": "TIDT2", "name": "Frio River at Tilden", "latitude": 28.467222222222, "longitude": -98.547222222222, "status": {"observed": {"primary": 1.87, "primaryUnit": "ft", "secondary": 0.0011, "secondaryUnit": "kcfs", "floodCategory": "no_flooding", "validTime": "2026-07-17T16:15:00Z"}, "forecast": {"primary": 28, "primaryUnit": "ft", "secondary": 15.6, "secondaryUnit": "kcfs", "floodCategory": "major", "validTime": "2026-07-21T18:00:00Z"}}}, {"lid": "TILT2", "name": "Nueces River near Tilden", "latitude": 28.308611111111, "longitude": -98.556944444444, "status": {"observed": {"primary": 2.19, "primaryUnit": "ft", "secondary": 0.0021, "secondaryUnit": "kcfs", "floodCategory": "no_flooding", "validTime": "2026-07-17T16:30:00Z"}, "forecast": {"primary": -999, "primaryUnit": "", "secondary": -999, "secondaryUnit": "", "floodCategory": "fcst_not_current", "validTime": "0001-01-01T00:00:00Z"}}}, {"lid": "TNLT2", "name": "San Miguel Creek near Tilden", "latitude": 28.587222222222, "longitude": -98.545555555556, "status": {"observed": {"primary": 1.34, "primaryUnit": "ft", "secondary": -999, "secondaryUnit": "kcfs", "floodCategory": "no_flooding", "validTime": "2026-07-17T16:15:00Z"}, "forecast": {"primary": -999, "primaryUnit": "", "secondary": -999, "secondaryUnit": "", "floodCategory": "fcst_not_current", "validTime": "0001-01-01T00:00:00Z"}}}, {"lid": "TPHT2", "name": "Hondo Creek near Tarpley", "latitude": 29.57, "longitude": -99.247777777778, "status": {"observed": {"primary": 4.7, "primaryUnit": "ft", "secondary": 0.924, "secondaryUnit": "kcfs", "floodCategory": "no_flooding", "validTime": "2026-07-17T16:00:00Z"}, "forecast": {"primary": -999, "primaryUnit": "", "secondary": -999, "secondaryUnit": "", "floodCategory": "fcst_not_current", "validTime": "0001-01-01T00:00:00Z"}}}, {"lid": "UDET2", "name": "Frio River below Dry Frio near Uvalde", "latitude": 29.245555555556, "longitude": -99.674166666667, "status": {"observed": {"primary": 11.74, "primaryUnit": "ft", "secondary": 13.4, "secondaryUnit": "kcfs", "floodCategory": "action", "validTime": "2026-07-17T15:30:00Z"}, "forecast": {"primary": 16.4, "primaryUnit": "ft", "secondary": 33.7, "secondaryUnit": "kcfs", "floodCategory": "moderate", "validTime": "2026-07-17T18:00:00Z"}}}, {"lid": "ULRT2", "name": "Leona River near Uvalde", "latitude": 29.154166666667, "longitude": -99.743055555556, "status": {"observed": {"primary": -999, "primaryUnit": "", "secondary": -999, "secondaryUnit": "", "floodCategory": "obs_not_current", "validTime": "0001-01-01T00:00:00Z"}, "forecast": {"primary": -999, "primaryUnit": "", "secondary": -999, "secondaryUnit": "", "floodCategory": "fcst_not_current", "validTime": "0001-01-01T00:00:00Z"}}}, {"lid": "UVAT2", "name": "Nueces River at Laguna", "latitude": 29.428333333333, "longitude": -99.996944444444, "status": {"observed": {"primary": 14.25, "primaryUnit": "ft", "secondary": 25.8, "secondaryUnit": "kcfs", "floodCategory": "moderate", "validTime": "2026-07-17T16:30:00Z"}, "forecast": {"primary": 15.2, "primaryUnit": "ft", "secondary": 30.1, "secondaryUnit": "kcfs", "floodCategory": "moderate", "validTime": "2026-07-17T19:00:00Z"}}}, {"lid": "UVLT2", "name": "Nueces River below Uvalde", "latitude": 29.123611111111, "longitude": -99.894444444444, "status": {"observed": {"primary": 14.97, "primaryUnit": "ft", "secondary": 39.2, "secondaryUnit": "kcfs", "floodCategory": "minor", "validTime": "2026-07-17T16:30:00Z"}, "forecast": {"primary": 14.6, "primaryUnit": "ft", "secondary": 35.6, "secondaryUnit": "kcfs", "floodCategory": "minor", "validTime": "2026-07-18T02:00:00Z"}}}, {"lid": "VCKT2", "name": "Middle Verde Creek at Hwy 173N near Hondo", "latitude": 29.567777777778, "longitude": -99.096944444444, "status": {"observed": {"primary": 4.57, "primaryUnit": "ft", "secondary": 0.0698, "secondaryUnit": "kcfs", "floodCategory": "not_defined", "validTime": "2026-07-17T15:30:00Z"}, "forecast": {"primary": -999, "primaryUnit": "", "secondary": -999, "secondaryUnit": "", "floodCategory": "fcst_not_current", "validTime": "0001-01-01T00:00:00Z"}}}, {"lid": "VICT2", "name": "Guadalupe River at Victoria", "latitude": 28.792777777778, "longitude": -97.012777777778, "status": {"observed": {"primary": 6.85, "primaryUnit": "ft", "secondary": 0.857, "secondaryUnit": "kcfs", "floodCategory": "no_flooding", "validTime": "2026-07-17T16:15:00Z"}, "forecast": {"primary": 12.6, "primaryUnit": "ft", "secondary": 3.36, "secondaryUnit": "kcfs", "floodCategory": "action", "validTime": "2026-07-19T06:00:00Z"}}}, {"lid": "WADT2", "name": "Walnut Creek at Dessau Rd near Austin", "latitude": 30.375, "longitude": -97.660277777778, "status": {"observed": {"primary": 6.12, "primaryUnit": "ft", "secondary": 0.013, "secondaryUnit": "kcfs", "floodCategory": "not_defined", "validTime": "2026-07-17T16:30:00Z"}, "forecast": {"primary": -999, "primaryUnit": "", "secondary": -999, "secondaryUnit": "", "floodCategory": "fcst_not_current", "validTime": "0001-01-01T00:00:00Z"}}}, {"lid": "WART2", "name": "Waller Creek at Red River Street", "latitude": 30.271389, "longitude": -97.735556, "status": {"observed": {"primary": 3.1, "primaryUnit": "ft", "secondary": -999, "secondaryUnit": "kcfs", "floodCategory": "not_defined", "validTime": "2026-07-17T15:35:00Z"}, "forecast": {"primary": -999, "primaryUnit": "", "secondary": -999, "secondaryUnit": "", "floodCategory": "fcst_not_current", "validTime": "0001-01-01T00:00:00Z"}}}, {"lid": "WCAT2", "name": "Waller Creek at East 1st Street at Austin", "latitude": 30.261944444444445, "longitude": -97.73972222222223, "status": {"observed": {"primary": 4.02, "primaryUnit": "ft", "secondary": -999, "secondaryUnit": "kcfs", "floodCategory": "out_of_service", "validTime": "2026-07-17T16:15:00Z"}, "forecast": {"primary": -999, "primaryUnit": "", "secondary": -999, "secondaryUnit": "", "floodCategory": "out_of_service", "validTime": "0001-01-01T00:00:00Z"}}}, {"lid": "WEET2", "name": "West Elm Creek at Encino Rio at San Antonio", "latitude": 29.629166666666666, "longitude": -98.4486111111111, "status": {"observed": {"primary": -0.21, "primaryUnit": "ft", "secondary": -999, "secondaryUnit": "kcfs", "floodCategory": "not_defined", "validTime": "2026-07-17T16:00:00Z"}, "forecast": {"primary": -999, "primaryUnit": "", "secondary": -999, "secondaryUnit": "", "floodCategory": "fcst_not_current", "validTime": "0001-01-01T00:00:00Z"}}}, {"lid": "WGRT2", "name": "Willis Creek near Granger", "latitude": 30.702222222222, "longitude": -97.434166666667, "status": {"observed": {"primary": 4.04, "primaryUnit": "ft", "secondary": 0.0115, "secondaryUnit": "kcfs", "floodCategory": "not_defined", "validTime": "2026-07-17T15:45:00Z"}, "forecast": {"primary": -999, "primaryUnit": "", "secondary": -999, "secondaryUnit": "", "floodCategory": "fcst_not_current", "validTime": "0001-01-01T00:00:00Z"}}}, {"lid": "WHOT2", "name": "Sandies Creek near Westhoff", "latitude": 29.2152474995717, "longitude": -97.4494352901303, "status": {"observed": {"primary": 2.19, "primaryUnit": "ft", "secondary": 0.0012, "secondaryUnit": "kcfs", "floodCategory": "no_flooding", "validTime": "2026-07-17T16:00:00Z"}, "forecast": {"primary": -999, "primaryUnit": "", "secondary": -999, "secondaryUnit": "", "floodCategory": "fcst_not_current", "validTime": "0001-01-01T00:00:00Z"}}}, {"lid": "WJCT2", "name": "Williamson Creek at Jimmy Clay Road near Austin 6SE", "latitude": 30.189166666667, "longitude": -97.732222222222, "status": {"observed": {"primary": 5.78, "primaryUnit": "ft", "secondary": 0.0151, "secondaryUnit": "kcfs", "floodCategory": "not_defined", "validTime": "2026-07-17T16:30:00Z"}, "forecast": {"primary": -999, "primaryUnit": "", "secondary": -999, "secondaryUnit": "", "floodCategory": "fcst_not_current", "validTime": "0001-01-01T00:00:00Z"}}}, {"lid": "WKLT2", "name": "Williamson Creek at Oak Hill", "latitude": 30.235, "longitude": -97.86, "status": {"observed": {"primary": 1.63, "primaryUnit": "ft", "secondary": -999, "secondaryUnit": "kcfs", "floodCategory": "no_flooding", "validTime": "2026-07-17T16:00:00Z"}, "forecast": {"primary": -999, "primaryUnit": "", "secondary": -999, "secondaryUnit": "", "floodCategory": "fcst_not_current", "validTime": "0001-01-01T00:00:00Z"}}}, {"lid": "WLCT2", "name": "Waller Creek at Koenig Lane", "latitude": 30.322777777778, "longitude": -97.722777777778, "status": {"observed": {"primary": 0.85, "primaryUnit": "ft", "secondary": -999, "secondaryUnit": "kcfs", "floodCategory": "not_defined", "validTime": "2026-07-17T16:25:00Z"}, "forecast": {"primary": -999, "primaryUnit": "", "secondary": -999, "secondaryUnit": "", "floodCategory": "fcst_not_current", "validTime": "0001-01-01T00:00:00Z"}}}, {"lid": "WMBT2", "name": "Blanco River at Wimberley", "latitude": 29.994166666667, "longitude": -98.088611111111, "status": {"observed": {"primary": 4.47, "primaryUnit": "ft", "secondary": 0.177, "secondaryUnit": "kcfs", "floodCategory": "no_flooding", "validTime": "2026-07-17T16:30:00Z"}, "forecast": {"primary": 4.5, "primaryUnit": "ft", "secondary": 0.189, "secondaryUnit": "kcfs", "floodCategory": "no_flooding", "validTime": "2026-07-17T17:00:00Z"}}}, {"lid": "WPMT2", "name": "West Prong Medina River at Carpenter Creek Road", "latitude": 29.78, "longitude": -99.379167, "status": {"observed": {"primary": 1.95, "primaryUnit": "ft", "secondary": -999, "secondaryUnit": "kcfs", "floodCategory": "not_defined", "validTime": "2026-07-17T16:25:00Z"}, "forecast": {"primary": -999, "primaryUnit": "", "secondary": -999, "secondaryUnit": "", "floodCategory": "fcst_not_current", "validTime": "0001-01-01T00:00:00Z"}}}, {"lid": "WRST2", "name": "Fifteenmile Creek near Weser", "latitude": 28.8975, "longitude": -97.354722222222, "status": {"observed": {"primary": 6.09, "primaryUnit": "ft", "secondary": -999, "secondaryUnit": "kcfs", "floodCategory": "not_defined", "validTime": "2026-07-17T16:00:00Z"}, "forecast": {"primary": -999, "primaryUnit": "", "secondary": -999, "secondaryUnit": "", "floodCategory": "fcst_not_current", "validTime": "0001-01-01T00:00:00Z"}}},